placekey,latitude,longitude,top_category,open_hours,location_name
222-222@62j-sj2-sqz,42.365577,-71.10589399999999,Religious Organizations,,The Church In Cambridge Inc
223-222@62j-sj2-hh5,42.370093,-71.102315,Other Amusement and Recreation Industries,"{ ""Mon"": [[""18:00"", ""19:30""]], ""Tue"": [], ""Wed"": [], ""Thu"": [], ""Fri"": [], ""Sat"": [], ""Sun"": [] }",Come To Yoga With Barbara Lyon
224-222@62j-sj2-kcq,42.373707,-71.104915,Lessors of Real Estate,,Condos at 74 Highland Ave
226-222@62j-sj2-7bk,42.369144,-71.09089499999999,Lessors of Real Estate,,Apartments at 15 Vandine St
226-222@62j-sj2-ks5,42.371825,-71.101943,Lessors of Real Estate,,Apartments at 97 Inman St
22d-222@62j-sj3-9s5,42.373919,-71.098271,Lessors of Real Estate,,Apartments at 10 Clary St
22f-222@62j-sj2-p35,42.364208000000005,-71.102297,Other Schools and Instruction,"{ ""Mon"": [[""9:00"", ""21:00""]], ""Tue"": [[""9:00"", ""21:00""]], ""Wed"": [[""9:00"", ""21:00""]], ""Thu"": [[""9:00"", ""21:00""]], ""Fri"": [[""9:00"", ""21:00""]], ""Sat"": [[""9:00"", ""21:00""]], ""Sun"": [[""9:00"", ""21:00""]] }",LS Flamenco
22f-222@62j-sj3-4y9,42.369825,-71.083167,Lessors of Real Estate,,Apartments at 114 Thorndike St
22f-222@62j-sk2-rrk,42.379106,-71.103804,Lessors of Real Estate,,Apartments at 361 Washington St
22n-222@62j-sj2-4d9,42.370292,-71.09400699999999,Lessors of Real Estate,,Apartments at 376 Windsor St
22q-222@62j-sj2-hwk,42.370397,-71.109585,Lessors of Real Estate,,Apartments at 14 Dana St
232-222@62j-sj3-85f,42.372795,-71.094923,Lessors of Real Estate,,Apartments at 1054 Cambridge St
235-222@62j-sj2-k75,42.372906,-71.103851,Lessors of Real Estate,,Apartments at 27 Fainwood Cir
239-222@62j-sjv-ju5,42.365157,-71.112138,Lessors of Real Estate,,Apartments at 18 Dodge St
23j-222@62j-sj2-sqz,42.365688,-71.106087,Lessors of Real Estate,,Apartments at 10 Pleasant St
23m-222@62j-sj8-q4v,42.379402,-71.091611,Building Finishing Contractors,,Bathroom Remodeling
23p-222@62j-sj2-kmk,42.375665999999995,-71.103592,Lessors of Real Estate,,Apartments at 50 Beacon St
244-222@62j-sjv-f75,42.364653999999994,-71.11519200000001,Lessors of Real Estate,,Harvard University Housing
254-223@62j-sk2-p7q,42.377897,-71.107366,Lessors of Real Estate,,Apartments at 92 Kirkland St
28z-223@62j-sj2-h5z,42.369468,-71.104582,Lessors of Real Estate,,Apartments at 287 Harvard St
zzw-222@62j-sj2-b49,42.359142,-71.092973,Restaurants and Other Eating Places,,Steam Cafe
zzw-224@62j-sj2-vcq,42.374390999999996,-71.084562,Medical and Diagnostic Laboratories,,Health Street
zzw-22g@62j-sjv-9fz,42.373233,-71.122151,Lessors of Real Estate,,Apartments at 115 Mt Auburn St
zzy-223@62j-sj2-f2k,42.362251,-71.088964,Specialty (except Psychiatric and Substance Abuse) Hospitals,,MIT Building 76 Koch Institute for Integrative Cancer Research
222-222@62j-sj2-mp9,42.373397,-71.108818,Lessors of Real Estate,,Apartments at 86 Ellery St
222-222@62j-sjv-cdv,42.373340999999996,-71.11361099999999,Lessors of Real Estate,,Harvard University Housing
222-223@62j-sj4-vcq,42.360240999999995,-71.085734,Lessors of Real Estate,,Apartments at 100 Memorial Dr
229-222@62j-sjv-fj9,42.365775,-71.11393000000001,Lessors of Real Estate,,Apartments at 16 Elmer St
22h-222@62j-sj3-9zz,42.379864000000005,-71.095129,Restaurants and Other Eating Places,"{ ""Mon"": [[""0:00"", ""1:00""]], ""Tue"": [[""17:00"", ""24:00""]], ""Wed"": [[""0:00"", ""1:00""], [""17:00"", ""24:00""]], ""Thu"": [[""0:00"", ""1:00""], [""17:00"", ""24:00""]], ""Fri"": [[""0:00"", ""1:00""], [""17:00"", ""24:00""]], ""Sat"": [[""0:00"", ""2:00""], [""15:00"", ""24:00""]], ""Sun"": [[""0:00"", ""2:00""], [""17:00"", ""24:00""]] }",Brass Union
22q-222@62j-sgg-ks5,42.362283000000005,-71.113968,Lessors of Real Estate,,Condos at 323 River St
22r-222@62j-sk2-qpv,42.377449,-71.109011,Lessors of Real Estate,,Apartments at 74 Kirkland St
235-222@62j-sj2-835,42.371124,-71.09707900000001,Other Amusement and Recreation Industries,"{ ""Mon"": [[""6:00"", ""20:30""]], ""Tue"": [[""6:00"", ""20:30""]], ""Wed"": [[""6:00"", ""20:30""]], ""Thu"": [[""6:00"", ""20:30""]], ""Fri"": [[""6:00"", ""14:00""]], ""Sat"": [[""8:00"", ""12:00""]], ""Sun"": [[""9:00"", ""18:00""]] }",Fitness Together
23s-222@62j-sj2-835,42.370667,-71.097385,Lessors of Real Estate,,Apartments at 138 Hampshire St
23y-222@62j-sj2-ks5,42.371572,-71.101652,Lessors of Real Estate,,Condos at 104 Inman St
242-222@62j-sj2-89z,42.372941,-71.096205,Lessors of Real Estate,,Apartments at 1130 Cambridge St
24d-222@62j-sj2-nyv,42.362727,-71.10504,Grocery Stores,"{ ""Mon"": [[""7:00"", ""22:30""]], ""Tue"": [[""7:00"", ""22:30""]], ""Wed"": [[""7:00"", ""22:30""]], ""Thu"": [[""7:00"", ""22:30""]], ""Fri"": [[""7:00"", ""22:30""]], ""Sat"": [[""7:00"", ""22:30""]], ""Sun"": [[""7:00"", ""22:30""]] }",Pearl Street Market
24h-222@62j-sj3-9j9,42.374521,-71.101502,Drinking Places (Alcoholic Beverages),"{ ""Mon"": [[""0:00"", ""1:00""]], ""Tue"": [[""17:00"", ""24:00""]], ""Wed"": [[""0:00"", ""1:00""], [""17:00"", ""24:00""]], ""Thu"": [[""0:00"", ""1:00""], [""17:00"", ""24:00""]], ""Fri"": [[""0:00"", ""1:00""], [""17:00"", ""24:00""]], ""Sat"": [[""0:00"", ""2:00""], [""17:00"", ""24:00""]], ""Sun"": [[""0:00"", ""2:00""], [""17:00"", ""24:00""]] }",Trina's Starlite Lounge
25d-222@62j-sjv-j7q,42.370715000000004,-71.113316,Offices of Other Health Practitioners,"{ ""Mon"": [[""8:00"", ""19:00""]], ""Tue"": [[""8:00"", ""19:00""]], ""Wed"": [[""8:00"", ""19:00""]], ""Thu"": [], ""Fri"": [[""8:00"", ""19:00""]], ""Sat"": [], ""Sun"": [] }",Youngren Virginia R Psychologst
26s-222@62j-sjv-py9,42.379490999999994,-71.125279,Lessors of Real Estate,,Apartments at 27 Concord Ave
27g-222@62j-sjv-ju5,42.365146,-71.11276,Lessors of Real Estate,,Apartments at 12 Dodge St
zzw-223@62j-sj3-47q,42.362595,-71.085488,Urban Transit Systems,,Charles MGH T Stop
zzy-222@62j-sjv-j35,42.36943,-71.110975,Personal Care Services,"{ ""Mon"": [[""10:00"", ""19:30""]], ""Tue"": [[""10:00"", ""19:30""]], ""Wed"": [[""10:00"", ""19:30""]], ""Thu"": [[""10:00"", ""19:30""]], ""Fri"": [[""10:00"", ""19:30""]], ""Sat"": [[""10:00"", ""19:30""]], ""Sun"": [[""11:00"", ""18:00""]] }",Harvard Beauty Spa
zzz-222@62j-sj2-rzf,42.363428000000006,-71.100044,"Museums, Historical Sites, and Similar Institutions",,Plaza
222-222@62j-sj2-dn5,42.360119,-71.088622,Specialty Food Stores,"{ ""Mon"": [], ""Tue"": [[""12:00"", ""18:00""]], ""Wed"": [], ""Thu"": [], ""Fri"": [], ""Sat"": [], ""Sun"": [] }",MIT Produce Stand
223-224@62j-sjv-j5f,42.368903,-71.110873,"Museums, Historical Sites, and Similar Institutions",,Z Park Innovation Center Boston
225-222@62j-sj2-sdv,42.363189,-71.098985,Religious Organizations,"{ ""Mon"": [], ""Tue"": [], ""Wed"": [[""20:00"", ""21:30""]], ""Thu"": [[""5:00"", ""6:00""]], ""Fri"": [[""5:00"", ""6:00""]], ""Sat"": [[""5:00"", ""6:00""]], ""Sun"": [[""14:00"", ""15:00""]] }",Korean Methodist Church Of Boston
227-222@62j-sj2-m8v,42.373331,-71.102246,Lessors of Real Estate,,Apartments at 66 Fayette St
228-222@62j-sj2-k4v,42.374851,-71.104384,Health and Personal Care Stores,,Cambridge Health Alliance Outpatient Pharmacy
228-222@62j-sj3-9mk,42.373806,-71.10007399999999,"Promoters of Performing Arts, Sports, and Similar Events",,The Lilypad
229-222@62j-sj2-hh5,42.369975,-71.102064,Other Amusement and Recreation Industries,"{ ""Mon"": [[""7:00"", ""22:00""]], ""Tue"": [[""7:00"", ""22:00""]], ""Wed"": [[""7:00"", ""22:00""]], ""Thu"": [[""7:00"", ""22:00""]], ""Fri"": [[""7:00"", ""22:00""]], ""Sat"": [[""7:00"", ""22:00""]], ""Sun"": [[""7:00"", ""22:00""]] }",Cambridge Insight Meditation Center
229-222@62j-sjv-975,42.374047,-71.121837,Clothing Stores,"{ ""Mon"": [[""10:00"", ""19:00""]], ""Tue"": [[""10:00"", ""19:00""]], ""Wed"": [[""10:00"", ""19:00""]], ""Thu"": [[""10:00"", ""19:00""]], ""Fri"": [[""10:00"", ""19:00""]], ""Sat"": [[""10:00"", ""19:00""]], ""Sun"": [[""11:00"", ""18:00""]] }",Anthropologie
22k-222@62j-sjv-ndv,42.373857,-71.124783,Electronics and Appliance Stores,"{ ""Mon"": [[""11:00"", ""20:00""]], ""Tue"": [[""11:00"", ""20:00""]], ""Wed"": [[""11:00"", ""20:00""]], ""Thu"": [[""11:00"", ""20:00""]], ""Fri"": [[""10:00"", ""21:00""]], ""Sat"": [[""10:00"", ""21:00""]], ""Sun"": [[""12:00"", ""19:00""]] }",Planet Records
22s-224@62j-sj2-rhq,42.366319,-71.103475,Personal Care Services,"{ ""Mon"": [[""8:00"", ""22:30""]], ""Tue"": [[""8:00"", ""22:30""]], ""Wed"": [[""8:00"", ""22:30""]], ""Thu"": [[""8:00"", ""22:30""]], ""Fri"": [[""8:00"", ""22:30""]], ""Sat"": [[""8:00"", ""22:30""]], ""Sun"": [[""8:00"", ""22:30""]] }",Zeel
22t-222@62j-sj3-9j9,42.374652000000005,-71.101614,Lessors of Real Estate,,Apartments at 5 Beacon St
232-222@62j-sjv-8jv,42.37133,-71.114789,Personal Care Services,"{ ""Mon"": [[""10:00"", ""21:00""]], ""Tue"": [[""10:00"", ""21:00""]], ""Wed"": [[""10:00"", ""21:00""]], ""Thu"": [[""10:00"", ""21:00""]], ""Fri"": [[""10:00"", ""21:00""]], ""Sat"": [[""10:00"", ""21:00""]], ""Sun"": [[""11:00"", ""20:00""]] }",Qi Foot Spa
23j-222@62j-sgg-75z,42.358265,-71.105925,Automotive Repair and Maintenance,"{ ""Mon"": [[""9:00"", ""17:00""]], ""Tue"": [[""9:00"", ""17:00""]], ""Wed"": [[""9:00"", ""17:00""]], ""Thu"": [[""9:00"", ""17:00""]], ""Fri"": [[""9:00"", ""17:00""]], ""Sat"": [[""9:00"", ""17:00""]], ""Sun"": [[""10:00"", ""16:00""]] }",Deleo's Auto Body & Service
23s-223@62j-sjv-8n5,42.370907,-71.114488,Drinking Places (Alcoholic Beverages),,Oberon
23y-222@62j-sj2-nqz,42.363161,-71.104063,Lessors of Real Estate,,Apartments at 66 Pearl St
249-223@62j-sj2-qcq,42.364435,-71.107383,Lessors of Real Estate,,Apartments at 73 River St
24c-222@62j-sjv-fxq,42.364576,-71.11442,Lessors of Real Estate,,Apartments at 359 Western Ave
24j-223@62j-sj2-vs5,42.371947999999996,-71.085774,Restaurants and Other Eating Places,"{ ""Mon"": [], ""Tue"": [[""11:00"", ""22:00""]], ""Wed"": [[""11:00"", ""22:00""]], ""Thu"": [[""11:00"", ""22:00""]], ""Fri"": [[""11:00"", ""22:00""]], ""Sat"": [[""11:00"", ""22:00""]], ""Sun"": [[""11:00"", ""22:00""]] }",9Zaab
259-222@62j-sjv-fj9,42.366079,-71.113984,Lessors of Real Estate,,Condos at 32 Elmer St
25h-222@62j-sk2-p7q,42.377946,-71.107261,Restaurants and Other Eating Places,"{ ""Mon"": [[""7:00"", ""17:00""]], ""Tue"": [[""7:00"", ""17:00""]], ""Wed"": [[""7:00"", ""17:00""]], ""Thu"": [[""7:00"", ""17:00""]], ""Fri"": [[""7:00"", ""17:00""]], ""Sat"": [[""8:00"", ""17:00""]], ""Sun"": [[""8:00"", ""17:00""]] }",Broadsheet Coffee Roasters
zzw-222@62j-sj2-c3q,42.361788,-71.09729200000001,"Sporting Goods, Hobby, and Musical Instrument Stores",,Cambridge Bicycle
zzw-222@62j-sj2-t35,42.365857,-71.103945,Printing and Related Support Activities,,Cambridge Transcriptions
zzw-222@62j-sj3-7qz,42.37746,-71.095564,,,Webster Auto Sales
zzy-222@62j-sgg-kfz,42.360973,-71.115263,Lessors of Real Estate,,Apartments at 814 Memorial Dr
zzy-223@62j-sj2-qvf,42.361515000000004,-71.107936,"Museums, Historical Sites, and Similar Institutions",,Dana Park
223-222@62j-sgg-fs5,42.357240000000004,-71.11421700000001,Electronics and Appliance Stores,,Micro Center
223-224@62j-sj2-hh5,42.370053000000006,-71.102335,Offices of Other Health Practitioners,"{ ""Mon"": [[""7:00"", ""18:00""]], ""Tue"": [[""7:00"", ""14:00""]], ""Wed"": [[""7:00"", ""14:00""]], ""Thu"": [[""7:00"", ""20:00""]], ""Fri"": [[""7:00"", ""14:00""]], ""Sat"": [], ""Sun"": [] }",Abram Ojure Lic Ac MAOM Dipl OM
225-222@62j-sgg-fpv,42.358653000000004,-71.11510799999999,Restaurants and Other Eating Places,,Bisuteki Japanese Steak House
226-224@62j-sjv-99f,42.373449,-71.121332,Depository Credit Intermediation,"{ ""Mon"": [[""9:00"", ""16:00""]], ""Tue"": [[""9:00"", ""16:00""]], ""Wed"": [[""9:00"", ""16:00""]], ""Thu"": [[""9:00"", ""16:00""]], ""Fri"": [[""9:00"", ""17:00""]], ""Sat"": [[""9:00"", ""12:00""]], ""Sun"": [] }",Eastern Bank
228-223@62j-sjv-9zz,42.372027,-71.120423,Restaurants and Other Eating Places,"{ ""Mon"": [], ""Tue"": [], ""Wed"": [], ""Thu"": [], ""Fri"": [[""13:00"", ""24:00""]], ""Sat"": [[""11:00"", ""24:00""]], ""Sun"": [[""11:00"", ""23:00""]] }",Amorino Gelato
22d-222@62j-sj2-wp9,42.373857,-71.088854,Lessors of Real Estate,,Apartments at 6 Bedford St
22h-222@62j-sjv-j7q,42.370047,-71.112454,Lessors of Real Estate,,The University
22s-222@62j-sj2-6p9,42.37232,-71.093294,Lessors of Real Estate,,Apartments at 472 Windsor St
22x-222@62j-sj2-j35,42.370717,-71.111366,Lessors of Real Estate,,Apartments at 21 Ellery St
22x-222@62j-sj2-rkz,42.365378,-71.103184,Other Miscellaneous Store Retailers,"{ ""Mon"": [[""10:00"", ""19:00""]], ""Tue"": [[""10:00"", ""19:00""]], ""Wed"": [[""10:00"", ""19:00""]], ""Thu"": [[""10:00"", ""19:00""]], ""Fri"": [[""10:00"", ""19:00""]], ""Sat"": [[""10:00"", ""19:00""]], ""Sun"": [[""10:00"", ""18:00""]] }",Blick Art Materials
22z-222@62j-sk2-rx5,42.379496,-71.10446999999999,Lessors of Real Estate,,Apartments at 65 Dane St
23g-222@62j-sj2-k9f,42.374596000000004,-71.10554300000001,Offices of Other Health Practitioners,,Cambridge Acupuncture Association
23n-222@62j-sj3-9pv,42.375052000000004,-71.09863,Lessors of Real Estate,,Condos at 29 Houghton St
23t-222@62j-sgg-k75,42.357902,-71.107196,Lessors of Real Estate,,Apartments at 250 Brookline St
246-222@62j-sjv-hyv,42.365505999999996,-71.115667,Lessors of Real Estate,,Harvard University Housing
247-222@62j-sj2-ht9,42.372128000000004,-71.109942,Lessors of Real Estate,,Apartments at 54 Ellery St
24k-222@62j-sj2-4d9,42.369890000000005,-71.094574,Lessors of Real Estate,,Apartments at 353 Windsor St
25m-222@62j-sj2-4gk,42.368663,-71.09389399999999,Lessors of Real Estate,,Townhouses at 36 Portsmouth St
zzw-222@62j-sj2-qvf,42.361624,-71.108639,Lessors of Real Estate,,Apartments at 73 Magazine St
zzw-223@62j-sj2-rzf,42.364631,-71.099413,Lessors of Real Estate,,Apartments at 41 Columbia St
zzw-224@62j-sj3-7qz,42.377308,-71.095915,Automotive Repair and Maintenance,"{ ""Mon"": [[""8:00"", ""18:00""]], ""Tue"": [[""8:00"", ""18:00""]], ""Wed"": [[""8:00"", ""18:00""]], ""Thu"": [[""8:00"", ""18:00""]], ""Fri"": [[""8:00"", ""18:00""]], ""Sat"": [[""8:00"", ""15:00""]], ""Sun"": [] }",Dm Auto Services
zzy-222@62j-sj2-75z,42.3731,-71.09354,Restaurants and Other Eating Places,"{ ""Mon"": [[""4:00"", ""22:00""]], ""Tue"": [[""4:00"", ""22:00""]], ""Wed"": [[""4:00"", ""22:00""]], ""Thu"": [[""4:00"", ""22:00""]], ""Fri"": [[""4:00"", ""22:00""]], ""Sat"": [[""4:00"", ""22:00""]], ""Sun"": [[""4:00"", ""22:00""]] }",Dunkin'
zzy-222@62j-sj2-c3q,42.362556,-71.098477,Restaurants and Other Eating Places,"{ ""Mon"": [[""11:00"", ""20:00""]], ""Tue"": [[""11:00"", ""20:00""]], ""Wed"": [[""11:00"", ""20:00""]], ""Thu"": [[""11:00"", ""18:00""]], ""Fri"": [[""11:00"", ""18:00""]], ""Sat"": [[""11:00"", ""18:00""]], ""Sun"": [[""11:00"", ""20:00""]] }",Abide
222-223@62j-sj2-xnq,42.375823,-71.08402099999999,Printing and Related Support Activities,,Lois Fiore
224-223@62j-sj2-syv,42.367612,-71.105535,Offices of Other Health Practitioners,"{ ""Mon"": [[""8:00"", ""18:00""]], ""Tue"": [[""8:00"", ""18:00""]], ""Wed"": [[""8:00"", ""18:00""]], ""Thu"": [[""8:00"", ""18:00""]], ""Fri"": [[""8:00"", ""18:00""]], ""Sat"": [], ""Sun"": [] }",Cambridge Biotherapies
224-223@62j-sk2-nh5,42.378346,-71.107261,Offices of Dentists,,Bright Dental
227-222@62j-sjv-hyv,42.368190999999996,-71.114287,Lessors of Real Estate,,Apartments at 100 Banks St
228-222@62j-sj3-7nq,42.376871,-71.09863399999999,Lessors of Real Estate,,Apartments at 51 Concord Ave
228-223@62j-sjv-8jv,42.371984999999995,-71.11554100000001,Lessors of Real Estate,,Apartments at 1218 Massachusetts Ave
22f-222@62j-sj2-6c5,42.366707,-71.096554,Lessors of Real Estate,,Apartments at 183 Harvard St
22g-222@62j-sjv-f75,42.364936,-71.11441500000001,Lessors of Real Estate,,Apartments at 12 Hingham St
22h-222@62j-sj2-6p9,42.371745000000004,-71.092803,Lessors of Real Estate,,Apartments at 12 Palermo St
22y-222@62j-sj2-qcq,42.3642,-71.107091,Lessors of Real Estate,,Condos at 100 River St
23h-222@62j-sj2-kvf,42.370163,-71.10141899999999,Lessors of Real Estate,,Apartments at 22 Amory St
267-222@62j-sj3-8jv,42.375099,-71.095597,Lessors of Real Estate,,Condos at 2 Tremont Pl
26m-222@62j-sk3-3wk,42.378192999999996,-71.120801,Religious Organizations,,First Church of Christ Scientist
zzw-225@62j-sjv-9fz,42.373611,-71.12283599999999,Individual and Family Services,,Cambridge Center for Adult Education
zzy-223@62j-sj2-89z,42.3729,-71.095861,"Other Professional, Scientific, and Technical Services","{ ""Mon"": [[""8:00"", ""18:00""]], ""Tue"": [[""8:00"", ""18:00""]], ""Wed"": [], ""Thu"": [[""8:00"", ""18:00""]], ""Fri"": [[""8:00"", ""18:00""]], ""Sat"": [[""8:00"", ""14:00""]], ""Sun"": [] }",Cambridge Cat Clinic
223-222@62j-sj3-4y9,42.369468,-71.083053,Child Day Care Services,,105 Spring St
223-223@62j-sj2-snq,42.366795,-71.106705,Religious Organizations,,Aletheia Church Inc
224-222@62j-sj8-nt9,42.379355,-71.087063,Automotive Repair and Maintenance,"{ ""Mon"": [[""8:00"", ""17:30""]], ""Tue"": [[""8:00"", ""17:30""]], ""Wed"": [[""8:00"", ""17:30""]], ""Thu"": [[""8:00"", ""17:30""]], ""Fri"": [[""8:00"", ""17:30""]], ""Sat"": [[""8:00"", ""13:00""]], ""Sun"": [] }",BBC Auto Repair
228-222@62j-sj2-5cq,42.36953,-71.099244,Lessors of Real Estate,,Apartments at 12 Tremont St
229-222@62j-sk2-qfz,42.376068,-71.10955600000001,Lessors of Real Estate,,Apartments at 100 Trowbridge St
22c-222@62j-sj3-7t9,42.376740000000005,-71.095957,Lessors of Real Estate,,Condos at 67 Prospect St
22n-222@62j-sj3-bzf,42.377829,-71.092387,Lessors of Real Estate,,Apartments at 18 Linden St
22q-222@62j-sj2-rkz,42.36606,-71.103222,Personal and Household Goods Repair and Maintenance,"{ ""Mon"": [], ""Tue"": [], ""Wed"": [[""7:00"", ""19:00""]], ""Thu"": [[""7:00"", ""19:00""]], ""Fri"": [[""7:00"", ""19:00""]], ""Sat"": [[""9:00"", ""15:00""]], ""Sun"": [] }",Jimmy's Shoe Repair
22v-222@62j-sk2-rx5,42.3786,-71.105644,Lessors of Real Estate,,Apartments at 397 Washington St
22w-222@62j-sj2-rkz,42.36587,-71.103442,Restaurants and Other Eating Places,,Donut Villa Diner
22y-223@62j-sj3-bzf,42.377724,-71.091542,Lessors of Real Estate,,Apartments at 37 Merriam St
23g-222@62j-sj2-7h5,42.368951,-71.09198,Lessors of Real Estate,,Apartments at 31 Plymouth St
249-222@62j-sj2-87q,42.370736,-71.098435,Lessors of Real Estate,,Apartments at 36 Tremont St
24y-222@62j-sgg-jy9,42.358936,-71.110075,Lessors of Real Estate,,Condos at 2 Newton St
26w-222@62j-sjv-kfz,42.368396999999995,-71.116023,Restaurants and Other Eating Places,"{ ""Mon"": [[""0:00"", ""1:00""]], ""Tue"": [], ""Wed"": [[""22:00"", ""24:00""]], ""Thu"": [[""0:00"", ""1:00""], [""22:00"", ""24:00""]], ""Fri"": [[""0:00"", ""1:00""], [""23:00"", ""24:00""]], ""Sat"": [[""0:00"", ""2:00""], [""23:00"", ""24:00""]], ""Sun"": [[""0:00"", ""2:00""], [""22:00"", ""24:00""]] }",Dunster Grille
27z-222@62j-sj2-x5z,42.370499,-71.08969300000001,Lessors of Real Estate,,Apartments at 3 Marney St
zzw-222@62j-sgg-fmk,42.357611,-71.112352,Lessors of Real Estate,,Apartments at 158 Magazine St
222-222@62j-sj2-v4v,42.374443,-71.08789499999999,Building Finishing Contractors,,Jkp Structural Engineering Group
223-222@62j-sj2-k75,42.372842,-71.103752,Lessors of Real Estate,,Apartments at 25 Fainwood Cir
227-222@62j-sj2-jjv,42.368018,-71.108649,Lessors of Real Estate,,Apartments at 900 Massachusetts Ave
227-222@62j-sj3-7kf,42.377129,-71.098991,Lessors of Real Estate,,Apartments at 26 Adrian St
228-222@62j-sj3-52k,42.368105,-71.083683,Lessors of Real Estate,,Apartments at 189 Charles St
22c-222@62j-sjv-bc5,42.37294,-71.119674,Depository Credit Intermediation,"{ ""Mon"": [[""7:00"", ""19:00""]], ""Tue"": [[""7:00"", ""19:00""]], ""Wed"": [[""7:00"", ""19:00""]], ""Thu"": [[""7:00"", ""19:00""]], ""Fri"": [[""7:00"", ""19:00""]], ""Sat"": [[""7:00"", ""19:00""]], ""Sun"": [[""8:00"", ""17:00""]] }",Capital One
22d-222@62j-sj2-rff,42.364792,-71.102071,Used Merchandise Stores,"{ ""Mon"": [[""11:00"", ""20:00""]], ""Tue"": [[""11:00"", ""20:00""]], ""Wed"": [[""11:00"", ""20:00""]], ""Thu"": [[""11:00"", ""20:00""]], ""Fri"": [[""11:00"", ""20:00""]], ""Sat"": [[""11:00"", ""20:00""]], ""Sun"": [[""11:00"", ""18:00""]] }",Boomerangs
236-222@62j-sj2-kmk,42.375758000000005,-71.10367600000001,Lessors of Real Estate,,Condos at 54 Beacon St
238-222@62j-sjv-8qf,42.372417,-71.11612,Restaurants and Other Eating Places,"{ ""Mon"": [], ""Tue"": [[""11:00"", ""21:00""]], ""Wed"": [[""11:00"", ""21:00""]], ""Thu"": [[""11:00"", ""21:00""]], ""Fri"": [[""11:00"", ""21:00""]], ""Sat"": [[""11:00"", ""21:00""]], ""Sun"": [] }",Mr Bartley's Gourmet Burgers
23p-223@62j-sj2-q9f,42.362372,-71.10996999999999,Lessors of Real Estate,,Apartments at 78 Pleasant St
23z-222@62j-sjv-q75,42.378972,-71.126387,Lessors of Real Estate,,Apartments at 4 Craigie St
243-222@62j-sj2-s5z,42.363671999999994,-71.101453,Restaurants and Other Eating Places,,ZuZu
24d-222@62j-sj2-nqz,42.363620000000004,-71.104068,Lessors of Real Estate,,Apartments at 53 Pearl St
25h-222@62j-sjv-ht9,42.368378,-71.11246899999999,Lessors of Real Estate,,Apartments at 585 FRANKLIN
25w-222@62j-sjv-j35,42.369603999999995,-71.111305,Drugs and Druggists' Sundries Merchant Wholesalers,"{ ""Mon"": [[""11:00"", ""21:00""]], ""Tue"": [[""11:00"", ""21:00""]], ""Wed"": [[""11:00"", ""21:00""]], ""Thu"": [[""11:00"", ""21:00""]], ""Fri"": [[""11:00"", ""21:00""]], ""Sat"": [[""11:00"", ""21:00""]], ""Sun"": [[""11:00"", ""21:00""]] }",Sira Naturals Cambridge
278-222@62j-sjv-n3q,42.37355,-71.126246,Lessors of Real Estate,,Condos at 993 Memorial Dr
286-222@62j-sjv-j7q,42.370453000000005,-71.113713,Home Furnishings Stores,"{ ""Mon"": [[""9:30"", ""18:00""]], ""Tue"": [[""9:30"", ""18:00""]], ""Wed"": [[""9:30"", ""18:00""]], ""Thu"": [[""9:30"", ""18:00""]], ""Fri"": [[""9:30"", ""18:00""]], ""Sat"": [[""9:30"", ""17:30""]], ""Sun"": [[""12:00"", ""17:00""]] }",Big Picture Framing
zzw-227@62j-sjv-8y9,42.370758,-71.113382,Offices of Other Health Practitioners,"{ ""Mon"": [[""9:00"", ""16:00""]], ""Tue"": [], ""Wed"": [[""9:00"", ""15:00""]], ""Thu"": [[""9:00"", ""15:00""]], ""Fri"": [], ""Sat"": [], ""Sun"": [] }",Jill K Colman Psy D
zzw-228@62j-sj2-t5f,42.367465,-71.107366,Offices of Real Estate Agents and Brokers,,Cambridge Premier Realty
zzw-229@62j-sj2-rkz,42.364956,-71.10345500000001,Other Amusement and Recreation Industries,"{ ""Mon"": [[""11:30"", ""23:00""]], ""Tue"": [[""11:30"", ""23:00""]], ""Wed"": [[""11:30"", ""23:00""]], ""Thu"": [[""11:30"", ""23:00""]], ""Fri"": [[""11:30"", ""23:00""]], ""Sat"": [[""10:00"", ""23:00""]], ""Sun"": [[""10:00"", ""23:00""]] }",Red Fox Escapes
227-222@62j-sj3-3nq,42.366985,-71.090488,"Management, Scientific, and Technical Consulting Services",,Redstar Ventures
22f-222@62j-sj2-qj9,42.365117,-71.108548,Religious Organizations,,Jhop
22g-222@62j-sj2-kcq,42.373383000000004,-71.10518,Lessors of Real Estate,,Apartments at 60 Highland Ave
22h-222@62j-sj2-7t9,42.370086,-71.090809,Lessors of Real Estate,,Apartments at 68 Berkshire St
22v-222@62j-sj3-8sq,42.375966999999996,-71.10094699999999,Lessors of Real Estate,,Apartments at 88 Concord Ave
23c-222@62j-sgg-k75,42.357690999999996,-71.10788199999999,Restaurants and Other Eating Places,,Cambridge Pizzeria
23k-222@62j-sj3-9fz,42.373384,-71.099462,Lessors of Real Estate,,Apartments at 1 Hampshire Ct
24p-222@62j-sj2-kvf,42.370647999999996,-71.101137,Traveler Accommodation,,Chez Pat
24y-222@62j-sj2-6x5,42.370982,-71.094413,Lessors of Real Estate,,Apartments at 44 Lincoln St
274-222@62j-sjv-jsq,42.365906,-71.109874,Lessors of Real Estate,,Apartments at 42 Jay St
zzw-222@62j-sgg-75z,42.358247,-71.10580999999999,Lessors of Real Estate,,Apartments at 72 Hamilton St
zzw-223@62j-sj3-8qf,42.377093,-71.102,Lessors of Real Estate,,Condos at 31 Harold St
zzy-223@62j-sjt-kxq,42.373028999999995,-71.122372,Other Amusement and Recreation Industries,"{ ""Mon"": [[""16:15"", ""19:30""]], ""Tue"": [[""16:15"", ""19:45""]], ""Wed"": [[""16:15"", ""19:45""]], ""Thu"": [[""16:15"", ""19:45""]], ""Fri"": [[""16:15"", ""18:30""]], ""Sat"": [[""9:30"", ""13:00""]], ""Sun"": [[""16:00"", ""17:00""]] }",Pure Barre
226-229@62j-sjv-bp9,42.372969,-71.118476,Lessors of Real Estate,,Condos at 1350 Massachusetts Ave
22b-223@62j-sj3-9j9,42.374644,-71.100486,Restaurants and Other Eating Places,"{ ""Mon"": [[""11:30"", ""21:00""]], ""Tue"": [[""11:30"", ""21:00""]], ""Wed"": [[""11:30"", ""21:00""]], ""Thu"": [[""11:30"", ""21:00""]], ""Fri"": [[""11:30"", ""21:00""]], ""Sat"": [[""11:30"", ""21:00""]], ""Sun"": [] }",Alex's Kitchen Somerville
22f-223@62j-sjv-9zz,42.372197,-71.121553,Offices of Other Health Practitioners,"{ ""Mon"": [[""9:00"", ""19:00""]], ""Tue"": [[""9:00"", ""19:00""]], ""Wed"": [[""12:30"", ""20:00""]], ""Thu"": [[""9:00"", ""20:00""]], ""Fri"": [[""9:00"", ""17:00""]], ""Sat"": [], ""Sun"": [] }",Gaiana Germani Ph D
22r-223@62j-sjv-hqz,42.369649,-71.112696,Lessors of Real Estate,,Apartments at 1038 Massachusetts Ave
232-222@62j-sjv-8n5,42.37027,-71.11434799999999,Lessors of Real Estate,,Apartments at 18 Banks St
236-222@62j-sj2-nyv,42.362408,-71.10588299999999,Lessors of Real Estate,,Townhouses at 10 Cottage St
237-222@62j-sj2-r6k,42.362536999999996,-71.106036,Lessors of Real Estate,,Apartments at 12 Cottage St
23g-222@62j-sjv-c89,42.373278000000006,-71.111618,Lessors of Real Estate,,Apartments at 452 Broadway
23n-222@62j-sk2-qfz,42.375868,-71.110519,Lessors of Real Estate,,Haskins Hall Harvard University Housing
24g-222@62j-sj2-q2k,42.364437,-71.109273,Lessors of Real Estate,,Apartments at 150 River St
24v-222@62j-sjv-bc5,42.372763,-71.119691,Other Amusement and Recreation Industries,,Mindful Boston
255-222@62j-sj3-89z,42.373763000000004,-71.09566600000001,Lessors of Real Estate,,Apartments at 392 Norfolk St
25d-222@62j-sj2-p35,42.364343,-71.102333,Restaurants and Other Eating Places,,5 Spices House Cambridge
27h-223@62j-sj2-p35,42.364242,-71.102917,Offices of Real Estate Agents and Brokers,,Kelly McCahon Lembu Real Estate
zzw-224@62j-sj2-s5z,42.363572,-71.101336,Restaurants and Other Eating Places,"{ ""Mon"": [[""11:30"", ""22:00""]], ""Tue"": [], ""Wed"": [[""11:30"", ""22:00""]], ""Thu"": [[""11:30"", ""22:00""]], ""Fri"": [[""11:30"", ""23:00""]], ""Sat"": [[""11:30"", ""23:00""]], ""Sun"": [[""11:30"", ""22:00""]] }",Mary Chung Restaurant
222-222@62j-sj2-6zf,42.372717,-71.091691,Personal Care Services,,Four Seasons Nail Design
226-222@62j-sj3-btv,42.377576,-71.0936,Child Day Care Services,,Jhc Allen Street Head Start
22b-222@62j-sj2-x3q,42.372507,-71.090195,Home Health Care Services,,12 Care
22h-223@62j-sj3-9zz,42.379921,-71.095007,"Museums, Historical Sites, and Similar Institutions",,Union Square
22n-222@62j-sj2-rkz,42.365966,-71.103149,Offices of Other Health Practitioners,"{ ""Mon"": [[""7:00"", ""19:30""]], ""Tue"": [[""7:00"", ""20:00""]], ""Wed"": [[""7:00"", ""19:30""]], ""Thu"": [[""7:00"", ""19:30""]], ""Fri"": [[""7:00"", ""17:00""]], ""Sat"": [[""7:00"", ""14:00""]], ""Sun"": [] }",Bay State Physical Therapy
22t-223@62j-sjv-r49,42.378529,-71.123497,"Colleges, Universities, and Professional Schools",,Longy School Of Music Of Bard College
22y-222@62j-sj2-kmk,42.375702000000004,-71.104519,Lessors of Real Estate,,Apartments at 88 Line St
23d-222@62j-sj3-85f,42.373713,-71.095276,Lessors of Real Estate,,Apartments at 303 Elm St
23r-222@62j-sj2-6x5,42.370404,-71.09441,Lessors of Real Estate,,Apartments at 377 Windsor St
23s-222@62j-sj3-8vz,42.377712,-71.103679,Lessors of Real Estate,,Condos at 45 Magnus Ave
23y-222@62j-sjv-bc5,42.372585,-71.119869,Restaurants and Other Eating Places,"{ ""Mon"": [[""0:00"", ""2:00""], [""11:00"", ""24:00""]], ""Tue"": [[""0:00"", ""2:00""], [""11:00"", ""24:00""]], ""Wed"": [[""0:00"", ""2:00""], [""11:00"", ""24:00""]], ""Thu"": [[""0:00"", ""2:00""], [""11:00"", ""24:00""]], ""Fri"": [[""0:00"", ""4:00""], [""11:00"", ""24:00""]], ""Sat"": [[""0:00"", ""4:00""], [""11:00"", ""24:00""]], ""Sun"": [[""0:00"", ""4:00""], [""11:00"", ""24:00""]] }",Tasty Burger
24b-222@62j-sj2-wc5,42.373031,-71.089775,Lessors of Real Estate,,Apartments at 34 Jefferson St
252-222@62j-sj3-52k,42.368043,-71.08300600000001,Lessors of Real Estate,,Apartments at 167 Charles St
25q-222@62j-sj2-qxq,42.360267,-71.107221,Lessors of Real Estate,,Apartments at 180 Pearl St
266-222@62j-sgg-4vz,42.356639,-71.10717199999999,Lessors of Real Estate,,Apartments at 9 Fort Washington Pl
278-222@62j-sj2-x5z,42.370478999999996,-71.089711,Lessors of Real Estate,,Apartments at 7 Marney St
zzy-223@62j-sj2-x89,42.372228,-71.08788,"Museums, Historical Sites, and Similar Institutions",,Alfred Vellucci Park
222-223@62j-sjv-brk,42.37644,-71.116827,Restaurants and Other Eating Places,"{ ""Mon"": [[""8:30"", ""21:00""]], ""Tue"": [[""8:30"", ""21:00""]], ""Wed"": [[""8:30"", ""21:00""]], ""Thu"": [[""8:30"", ""21:00""]], ""Fri"": [[""8:30"", ""21:00""]], ""Sat"": [[""11:00"", ""21:00""]], ""Sun"": [[""11:00"", ""21:00""]] }",Bon Me Harvard Truck
223-222@62j-sj3-cqz,42.379726,-71.097359,Lessors of Real Estate,,Apartments at 269 Washington St
224-222@62j-sj3-4y9,42.369448999999996,-71.082723,Lessors of Real Estate,,Apartments at 99 Spring St
226-222@62j-sj2-nqz,42.363634000000005,-71.104699,Lessors of Real Estate,,Apartments at 159 Auburn St
226-222@62j-sjv-b8v,42.371219,-71.117438,"Colleges, Universities, and Professional Schools","{ ""Mon"": [[""9:00"", ""22:30""]], ""Tue"": [[""9:00"", ""22:30""]], ""Wed"": [[""9:00"", ""22:30""]], ""Thu"": [[""9:00"", ""22:30""]], ""Fri"": [[""9:00"", ""22:30""]], ""Sat"": [[""8:30"", ""22:30""]], ""Sun"": [] }",Harvard University Hillel
226-222@62j-sk2-p35,42.377296,-71.105452,Lessors of Real Estate,,Apartments at 102 Beacon St
227-222@62j-sgg-fxq,42.358168,-71.111763,Lessors of Real Estate,,Apartments at 144 Magazine St
227-222@62j-sj8-nnq,42.378541999999996,-71.086332,Other Amusement and Recreation Industries,"{ ""Mon"": [[""6:00"", ""19:30""]], ""Tue"": [[""6:00"", ""19:30""]], ""Wed"": [[""6:00"", ""19:30""]], ""Thu"": [[""6:00"", ""19:30""]], ""Fri"": [], ""Sat"": [[""6:00"", ""12:00""]], ""Sun"": [[""6:00"", ""12:00""]] }",The Classical Pilates Room
228-222@62j-sj8-nnq,42.378831,-71.086575,Automotive Repair and Maintenance,,United Auto Repair & America Auto Rental
228-222@62j-sjv-9cq,42.374475,-71.12267800000001,Lessors of Real Estate,,Apartments at 6 Hilliard St
229-222@62j-sj2-wp9,42.374021,-71.089301,Lessors of Real Estate,,Apartments at 33 Porter St
22d-222@62j-sjv-c5z,42.374584999999996,-71.113272,Other Amusement and Recreation Industries,,Society for Critical Aesthetics
22m-222@62j-sjv-r49,42.378411,-71.12435,Lessors of Real Estate,,Condos at 12 Concord Ave
22p-223@62j-sj3-b6k,42.379962,-71.096241,"Agencies, Brokerages, and Other Insurance Related Activities",,Brasil Insurance
22x-222@62j-sj2-xdv,42.373051000000004,-71.088336,Lessors of Real Estate,,Apartments at 3 Jefferson St
236-222@62j-sj2-4gk,42.368594,-71.094216,Lessors of Real Estate,,Apartments at 52 Portsmouth St
23d-222@62j-sj2-8d9,42.370896,-71.09585600000001,Lessors of Real Estate,,Apartments at 319 Columbia St
23y-222@62j-sj2-75z,42.372343,-71.093613,Lessors of Real Estate,,Apartments at 469 Windsor St
247-222@62j-sj3-835,42.374744,-71.09546,Lessors of Real Estate,,Apartments at 420 Norfolk St
25t-222@62j-sk2-qfz,42.376323,-71.109988,Lessors of Real Estate,,Apartments at 99 Trowbridge St
26t-222@62j-sj2-xbk,42.371745000000004,-71.08659200000001,"Beer, Wine, and Liquor Stores","{ ""Mon"": [[""9:00"", ""22:00""]], ""Tue"": [[""9:00"", ""23:00""]], ""Wed"": [[""9:00"", ""23:00""]], ""Thu"": [[""9:00"", ""23:00""]], ""Fri"": [[""9:00"", ""23:00""]], ""Sat"": [[""9:00"", ""23:00""]], ""Sun"": [[""12:00"", ""22:00""]] }",City Liquors
277-222@62j-sjv-8jv,42.372037,-71.11556,Personal Care Services,,Thread & Shape
28r-222@62j-sjv-n3q,42.373584,-71.125747,Lessors of Real Estate,,Apartments at 36 Ash St
zzw-222@62j-sj2-4gk,42.369071999999996,-71.09429,Lessors of Real Estate,,Apartments at 89 Plymouth St
222-224@62j-sjv-d9z,42.377934,-71.119741,Religious Organizations,,Harvard Korean Mission
224-222@62j-sjv-fzz,42.362839,-71.11385,Lessors of Real Estate,,Apartments at 263 Putnam Ave
228-222@62j-sj2-kfz,42.374862,-71.102532,Health and Personal Care Stores,"{ ""Mon"": [[""7:00"", ""23:00""]], ""Tue"": [[""7:00"", ""23:00""]], ""Wed"": [[""7:00"", ""23:00""]], ""Thu"": [[""7:00"", ""23:00""]], ""Fri"": [[""7:00"", ""23:00""]], ""Sat"": [[""7:00"", ""23:00""]], ""Sun"": [[""7:00"", ""23:00""]] }",Walgreens
22h-223@62j-sjv-9zz,42.371905,-71.12044,Lessors of Real Estate,,Condos at 54 John F Kennedy St
22s-222@62j-sj3-b6k,42.37989,-71.096793,Restaurants and Other Eating Places,,Red House Restaurant
22w-222@62j-sj2-5zz,42.366321,-71.097939,Lessors of Real Estate,,Condos at 124 Columbia St
22y-222@62j-sj3-9mk,42.373804,-71.10021400000001,Lessors of Real Estate,,Apartments at 1367 Cambridge St
235-222@62j-sj2-wp9,42.373502,-71.089208,Lessors of Real Estate,,Apartments at 42 Porter St
23k-222@62j-sj2-mkz,42.374973,-71.109241,Grocery Stores,"{ ""Mon"": [[""6:00"", ""22:00""]], ""Tue"": [[""6:00"", ""22:00""]], ""Wed"": [[""6:00"", ""22:00""]], ""Thu"": [[""6:00"", ""22:00""]], ""Fri"": [[""6:00"", ""22:00""]], ""Sat"": [[""8:00"", ""22:00""]], ""Sun"": [[""8:00"", ""22:00""]] }",Harvard Market
23t-222@62j-sk2-p7q,42.377046,-71.108088,Lessors of Real Estate,,Apartments at 38 Roberts Rd
242-223@62j-sj2-q75,42.363744,-71.110085,Lessors of Real Estate,,Apartments at 171 173 River St
24h-222@62j-sj2-xdv,42.373396,-71.088773,Lessors of Real Estate,,Apartments at 24 Porter St
25g-222@62j-sj2-6p9,42.371784000000005,-71.093088,Lessors of Real Estate,,Apartments at 24 Palermo St
zzw-222@62j-sj3-2c5,42.366646,-71.086437,Restaurants and Other Eating Places,"{ ""Mon"": [[""6:00"", ""15:00""]], ""Tue"": [[""6:00"", ""15:00""]], ""Wed"": [[""6:00"", ""15:00""]], ""Thu"": [[""6:00"", ""15:00""]], ""Fri"": [[""6:00"", ""15:00""]], ""Sat"": [], ""Sun"": [] }",Discovery Cafe
zzw-224@62j-sj2-49z,42.368596999999994,-71.09718000000001,Religious Organizations,,United Pentecostal Council Of The Assemblies Of God
zzw-226@62j-sjv-8jv,42.371266999999996,-71.114633,Restaurants and Other Eating Places,"{ ""Mon"": [[""12:00"", ""23:00""]], ""Tue"": [[""12:00"", ""23:00""]], ""Wed"": [[""12:00"", ""23:00""]], ""Thu"": [[""12:00"", ""23:00""]], ""Fri"": [[""12:00"", ""23:00""]], ""Sat"": [[""12:00"", ""23:00""]], ""Sun"": [[""12:00"", ""23:00""]] }",BerryLine
zzz-223@62j-sj2-w49,42.372821,-71.083976,Other Amusement and Recreation Industries,,Gore Playground
222-222@62j-sjv-g8v,42.364394,-71.11324,Lessors of Real Estate,,Apartments at 316 Western Ave
223-222@62j-sj2-rff,42.364898,-71.101363,Lessors of Real Estate,,Apartments at 30 Norfolk St
22d-223@62j-sj2-jjv,42.367678000000005,-71.107887,Lessors of Real Estate,,Apartments at 878 Massachusetts Ave
22f-225@62j-sj2-p35,42.364239000000005,-71.102288,Sound Recording Industries,,The Boston She Party
22n-223@62j-sj2-syv,42.3668,-71.104989,Lessors of Real Estate,,Apartments at 8 Inman St
22s-22c@62j-sj2-rkz,42.365565999999994,-71.10333299999999,Health and Personal Care Stores,"{ ""Mon"": [[""7:00"", ""24:00""]], ""Tue"": [[""7:00"", ""24:00""]], ""Wed"": [[""7:00"", ""24:00""]], ""Thu"": [[""7:00"", ""24:00""]], ""Fri"": [[""7:00"", ""24:00""]], ""Sat"": [[""7:00"", ""24:00""]], ""Sun"": [[""7:00"", ""24:00""]] }",Walgreens Pharmacy
23b-222@62j-sj2-5zz,42.366294,-71.097102,Lessors of Real Estate,,Condos at 138 Pine St
24k-222@62j-sj3-6ff,42.370115999999996,-71.084843,Lessors of Real Estate,,Apartments at 146 Thorndike St
258-222@62j-sj2-jy9,42.37075,-71.108038,Lessors of Real Estate,,Apartments at 334 Harvard St
25f-222@62j-sj2-vvf,42.371532,-71.085124,Lessors of Real Estate,,Apartments at 524 Cambridge St
263-222@62j-sj3-9s5,42.373614,-71.098439,Restaurants and Other Eating Places,,Christina's Homemade Ice Cream
26j-222@62j-sgg-jy9,42.359217,-71.110285,Lessors of Real Estate,,Apartments at 126 Magazine St
26m-222@62j-sgg-jd9,42.359784000000005,-71.112484,Lessors of Real Estate,,Condos at 403 Putnam Ave
297-222@62j-sj2-h5z,42.3692,-71.103714,Lessors of Real Estate,,Apartments at 47 Inman St
2cr-223@62j-sj2-jjv,42.367909000000004,-71.107403,Personal Care Services,"{ ""Mon"": [], ""Tue"": [], ""Wed"": [], ""Thu"": [], ""Fri"": [[""17:00"", ""21:00""]], ""Sat"": [[""9:30"", ""16:00""]], ""Sun"": [[""9:30"", ""16:00""]] }",Rebalance Bodywork and Massage
zzw-222@62j-sj2-54v,42.36615,-71.090746,Drinking Places (Alcoholic Beverages),"{ ""Mon"": [[""0:00"", ""1:00""], [""11:00"", ""24:00""]], ""Tue"": [[""0:00"", ""1:00""], [""11:00"", ""24:00""]], ""Wed"": [[""0:00"", ""1:00""], [""11:00"", ""24:00""]], ""Thu"": [[""0:00"", ""1:00""], [""11:00"", ""24:00""]], ""Fri"": [[""0:00"", ""2:00""], [""11:00"", ""24:00""]], ""Sat"": [[""0:00"", ""2:00""], [""10:00"", ""24:00""]], ""Sun"": [[""0:00"", ""2:00""], [""10:00"", ""24:00""]] }",State Park
222-222@62j-sj2-xnq,42.375786,-71.08402,"Other Professional, Scientific, and Technical Services","{ ""Mon"": [[""9:00"", ""17:00""]], ""Tue"": [[""9:00"", ""17:00""]], ""Wed"": [[""9:00"", ""17:00""]], ""Thu"": [[""9:00"", ""17:00""]], ""Fri"": [[""9:00"", ""17:00""]], ""Sat"": [], ""Sun"": [] }",Erik Patton Photography
223-222@62j-sjv-c89,42.373377000000005,-71.112976,Lessors of Real Estate,,Harvard University Housing
225-222@62j-sj2-qpv,42.360551,-71.106854,Lessors of Real Estate,,Condos at 164 Pearl St
225-222@62j-sj2-swk,42.365586,-71.108003,Lessors of Real Estate,,Apartments at 9 Soden St
226-222@62j-sjv-qpv,42.375751,-71.123121,Lessors of Real Estate,,Apartments at 79 Brattle St
22j-222@62j-sk2-qfz,42.376225,-71.109526,Lessors of Real Estate,,Apartments at 102 Trowbridge St
22y-222@62j-sj3-2p9,42.367965000000005,-71.084328,Lessors of Real Estate,,Apartments at 200 Charles St
23d-222@62j-sj2-wc5,42.373228000000005,-71.0896,Lessors of Real Estate,,Apartments at 33 Jefferson St
23h-222@62j-sj2-nqz,42.363953,-71.10458100000001,Lessors of Real Estate,,Apartments at 240 Franklin St
23r-222@62j-sjv-jvz,42.367284999999995,-71.110312,Lessors of Real Estate,,Apartments at 476 Franklin St
24f-222@62j-sjv-ndv,42.374499,-71.12341500000001,Lessors of Real Estate,,Apartments at 9 Hilliard Pl
26g-223@62j-sj2-p5f,42.363799,-71.102294,Other Amusement and Recreation Industries,"{ ""Mon"": [], ""Tue"": [], ""Wed"": [[""17:00"", ""18:00""]], ""Thu"": [], ""Fri"": [], ""Sat"": [[""15:00"", ""16:00""]], ""Sun"": [] }",Rebel Presents Pop 101
27t-222@62j-sjv-hwk,42.369565,-71.113708,Lessors of Real Estate,,Apartments at 17A Putnam Ave
2gc-222@62j-sj2-x89,42.372661,-71.08799499999999,Drycleaning and Laundry Services,"{ ""Mon"": [[""8:00"", ""18:00""]], ""Tue"": [[""8:00"", ""18:00""]], ""Wed"": [[""8:00"", ""18:00""]], ""Thu"": [[""8:00"", ""18:00""]], ""Fri"": [[""8:00"", ""18:00""]], ""Sat"": [[""8:00"", ""17:00""]], ""Sun"": [] }",Parise Cleaners
zzw-223@62j-sj2-v2k,42.373769,-71.086371,"General Merchandise Stores, including Warehouse Clubs and Supercenters","{ ""Mon"": [[""8:00"", ""22:00""]], ""Tue"": [[""8:00"", ""22:00""]], ""Wed"": [[""8:00"", ""22:00""]], ""Thu"": [[""8:00"", ""22:00""]], ""Fri"": [[""8:00"", ""22:00""]], ""Sat"": [[""8:00"", ""22:00""]], ""Sun"": [[""8:00"", ""22:00""]] }",Dollar Tree
zzy-222@62j-sj2-rff,42.365152,-71.101692,Specialty Food Stores,"{ ""Mon"": [[""12:00"", ""18:00""]], ""Tue"": [], ""Wed"": [], ""Thu"": [], ""Fri"": [], ""Sat"": [], ""Sun"": [] }",Central Square Farmers Market
zzz-222@62j-sj2-kvf,42.370915000000004,-71.101447,Other Amusement and Recreation Industries,,Paine Playground
223-222@62j-sj2-pd9,42.36068,-71.102395,Other Amusement and Recreation Industries,,Catalyst Performance Training
224-222@62j-sj2-ffz,42.36306,-71.097008,Lessors of Real Estate,,Apartments at 782 Main St
226-222@62j-sj2-4gk,42.368732,-71.093374,Lessors of Real Estate,,Apartments at 16 Portsmouth St
22c-222@62j-sj3-b6k,42.380010999999996,-71.097101,Home Health Care Services,"{ ""Mon"": [[""9:00"", ""17:00""]], ""Tue"": [[""9:00"", ""17:00""]], ""Wed"": [[""9:00"", ""17:00""]], ""Thu"": [[""9:00"", ""17:00""]], ""Fri"": [[""9:00"", ""17:00""]], ""Sat"": [[""9:00"", ""17:00""]], ""Sun"": [] }",Metro Boston Home Care
22c-222@62j-sk2-qs5,42.376488,-71.109402,Lessors of Real Estate,,Apartments at 106 Trowbridge St
22d-222@62j-sj3-7kf,42.377521,-71.09795799999999,Lessors of Real Estate,,Apartments at 22 Joseph St
22f-222@62j-sgg-jjv,42.360184000000004,-71.10968000000001,Lessors of Real Estate,,Apartments at 106 Magazine St
22j-222@62j-sj2-4jv,42.370232,-71.095793,Lessors of Real Estate,,Condos at 292 Columbia St
22p-222@62j-sjv-8jv,42.37186,-71.115371,Health and Personal Care Stores,"{ ""Mon"": [], ""Tue"": [[""10:00"", ""19:00""]], ""Wed"": [[""10:00"", ""19:00""]], ""Thu"": [[""10:00"", ""19:00""]], ""Fri"": [[""10:00"", ""19:00""]], ""Sat"": [[""10:00"", ""18:00""]], ""Sun"": [[""12:00"", ""17:00""]] }",241 Optical
22s-222@62j-sj3-9vf,42.375351,-71.10019,Lessors of Real Estate,,Apartments at 44 Springfield St
22z-222@62j-sj3-b6k,42.379913,-71.096808,,,Macchu Chicken
235-222@62j-sjv-b6k,42.372696999999995,-71.118877,Restaurants and Other Eating Places,"{ ""Mon"": [[""11:00"", ""22:00""]], ""Tue"": [[""11:00"", ""22:00""]], ""Wed"": [[""11:00"", ""22:00""]], ""Thu"": [[""11:00"", ""22:00""]], ""Fri"": [[""11:00"", ""22:00""]], ""Sat"": [[""11:00"", ""22:00""]], ""Sun"": [[""11:00"", ""22:00""]] }",Saloniki Greek
237-222@62j-sj2-5j9,42.369415000000004,-71.100627,"Sporting Goods, Hobby, and Musical Instrument Stores",,Cambridge Music Consortium
23d-222@62j-sk2-nt9,42.379877,-71.106365,Lessors of Real Estate,,Apartments at 39 Skehan St
23j-222@62j-sgg-j9z,42.361575,-71.112379,Lessors of Real Estate,,Condos at 25 Fairmont Ave
24f-222@62j-sj2-jvz,42.368821000000004,-71.106515,Lessors of Real Estate,,Apartments at 28 Lee St
24k-222@62j-sk2-pd9,42.378353000000004,-71.105203,Lessors of Real Estate,,Apartments at 388 Washington St
24s-222@62j-sj2-nqz,42.364055,-71.104747,Lessors of Real Estate,,Apartments at 248 Franklin St
24y-222@62j-sjv-8jv,42.371842,-71.115429,Personal Care Services,"{ ""Mon"": [[""10:00"", ""19:00""]], ""Tue"": [[""10:00"", ""19:00""]], ""Wed"": [[""10:00"", ""19:00""]], ""Thu"": [[""10:00"", ""19:00""]], ""Fri"": [[""10:00"", ""19:00""]], ""Sat"": [[""10:00"", ""18:00""]], ""Sun"": [[""12:00"", ""18:00""]] }",Andre Hair Salon
254-222@62j-sjv-jsq,42.365913,-71.108489,Lessors of Real Estate,,Apartments at 18 Soden St
257-222@62j-sjv-g49,42.364506,-71.11166,Lessors of Real Estate,,Apartments at 250 Western Ave
25q-222@62j-sj2-xbk,42.371499,-71.087365,Lessors of Real Estate,,Condos at 10 Max Ave
284-222@62j-sj2-vmk,42.371798999999996,-71.083985,Other Personal Services,"{ ""Mon"": [[""10:00"", ""20:30""]], ""Tue"": [[""10:00"", ""20:30""]], ""Wed"": [[""10:00"", ""20:30""]], ""Thu"": [[""10:00"", ""20:30""]], ""Fri"": [[""10:00"", ""20:30""]], ""Sat"": [[""10:00"", ""20:30""]], ""Sun"": [[""10:00"", ""20:30""]] }",Lovely Spa
zzw-225@62j-sj2-85f,42.37251,-71.099563,Personal Care Services,,A Touch of Hope
229-222@62j-sj2-rrk,42.366069,-71.099513,Lessors of Real Estate,,Condos at 18 Suffolk St
22n-222@62j-sj2-75z,42.372655,-71.093602,Offices of Other Health Practitioners,,Zhao Acupuncture and Herbal Clinic
22p-222@62j-sj2-4qf,42.366162,-71.093808,Lessors of Real Estate,,Apartments at 95 Moore St
232-222@62j-sjv-nbk,42.375392,-71.12456999999999,"Museums, Historical Sites, and Similar Institutions",,Radcliffe Yard
234-222@62j-sj2-c3q,42.362287,-71.097548,"Museums, Historical Sites, and Similar Institutions",,Mit Museum
246-222@62j-sj2-rp9,42.367478999999996,-71.100902,Elementary and Secondary Schools,,Prospect Hill Academy Charter School
24q-222@62j-sj2-qxq,42.360008,-71.107321,Lessors of Real Estate,,Apartments at 177 Erie St
24r-222@62j-sj2-6c5,42.366634999999995,-71.09636,Lessors of Real Estate,,Apartments at 177 Harvard St
25b-222@62j-sj2-wx5,42.372031,-71.08901999999999,Offices of Other Health Practitioners,"{ ""Mon"": [[""9:00"", ""19:00""]], ""Tue"": [[""9:00"", ""19:00""]], ""Wed"": [[""9:00"", ""19:00""]], ""Thu"": [[""9:00"", ""19:00""]], ""Fri"": [], ""Sat"": [], ""Sun"": [] }",Cambridge Chiropractic Center
26b-222@62j-sgg-4vz,42.356674,-71.107182,Lessors of Real Estate,,Townhouses at 5 Fort Washington Pl
27m-222@62j-sj2-8d9,42.370909999999995,-71.09541999999999,Lessors of Real Estate,,Apartments at 326 Columbia St
zzw-222@62j-sjp-jgk,42.365138,-71.102738,Restaurants and Other Eating Places,"{ ""Mon"": [[""8:00"", ""17:00""]], ""Tue"": [[""8:00"", ""17:00""]], ""Wed"": [[""8:00"", ""17:00""]], ""Thu"": [[""8:00"", ""17:00""]], ""Fri"": [[""8:00"", ""17:00""]], ""Sat"": [[""8:00"", ""17:00""]], ""Sun"": [[""8:00"", ""17:00""]] }",Caff√® Nero
223-222@62j-sj2-mrk,42.374973,-71.10649599999999,Continuing Care Retirement Communities and Assisted Living Facilities for the Elderly,,Youville Assisted Living
224-222@62j-sj3-b8v,42.378954,-71.09546,Lessors of Real Estate,,Condos at 14 Everett St
225-225@62j-sj2-jn5,42.369102000000005,-71.109889,Printing and Related Support Activities,,Mediation Resource
228-222@62j-sj2-7t9,42.37001,-71.09043299999999,Lessors of Real Estate,,Apartments at 23 Hardwick St
22b-222@62j-sj3-9j9,42.374629999999996,-71.100472,Individual and Family Services,,Portugese American Civic League
22f-222@62j-sjv-kcq,42.369401,-71.115425,Lessors of Real Estate,,Harvard University Housing
22k-222@62j-sk2-p7q,42.377803,-71.10713100000001,Lessors of Real Estate,,Apartments at 5 Line St
22m-222@62j-sj2-7bk,42.368613,-71.09085,Lessors of Real Estate,,Apartments at 17 Plymouth St
22m-222@62j-sj2-qpv,42.360946000000006,-71.106422,Lessors of Real Estate,,Apartments at 150 Pearl St
22s-223@62j-sj2-hbk,42.369236,-71.104988,Lessors of Real Estate,,Apartments at 288 Harvard St
233-222@62j-sk2-rx5,42.37854,-71.10453000000001,Lessors of Real Estate,,Apartments at 378 Washington St
23b-222@62j-sj2-hh5,42.369462,-71.103098,Lessors of Real Estate,,Apartments at 48 Inman St
23z-222@62j-sjv-8sq,42.370740999999995,-71.115599,Lessors of Real Estate,,Condos at 28 Mt Auburn St
24c-223@62j-sk2-pjv,42.378052000000004,-71.10645,Lessors of Real Estate,,Apartments at 118 Beacon St
24d-222@62j-sj3-89z,42.373329999999996,-71.096335,Building Material and Supplies Dealers,"{ ""Mon"": [[""7:30"", ""17:30""]], ""Tue"": [[""7:30"", ""17:30""]], ""Wed"": [[""7:30"", ""17:30""]], ""Thu"": [[""7:30"", ""17:30""]], ""Fri"": [[""7:30"", ""17:30""]], ""Sat"": [[""8:00"", ""13:00""]], ""Sun"": [] }",City Paint & Supply Co Inc
27f-222@62j-sk3-3t9,42.379728,-71.120886,Lessors of Real Estate,,Apartments at 4 Chauncy St
27z-222@62j-sj2-8gk,42.372732,-71.098394,Grocery Stores,,Al Hoda Market
2dz-223@62j-sj3-2zf,42.364973,-71.083878,Lessors of Real Estate,,Apartments at 303 Third St
zzw-224@62j-sj3-4d9,42.362808,-71.088414,Depository Credit Intermediation,"{ ""Mon"": [[""9:00"", ""17:00""]], ""Tue"": [[""9:00"", ""17:00""]], ""Wed"": [[""9:00"", ""17:00""]], ""Thu"": [[""9:00"", ""17:00""]], ""Fri"": [[""9:00"", ""17:00""]], ""Sat"": [], ""Sun"": [] }",Cambridge Trust Company
zzw-227@62j-sj2-rhq,42.366663,-71.104123,Other Schools and Instruction,"{ ""Mon"": [[""18:30"", ""20:00""]], ""Tue"": [[""19:00"", ""21:00""]], ""Wed"": [[""19:30"", ""21:30""]], ""Thu"": [[""19:00"", ""21:00""]], ""Fri"": [], ""Sat"": [[""10:30"", ""12:00""]], ""Sun"": [] }",Capoeira Mestre Chuvisco
zzy-224@62j-sj2-rhq,42.36698,-71.10316800000001,Lessors of Real Estate,,Condos at 65 Prospect St
222-222@62j-sj3-68v,42.369921000000005,-71.087861,Lessors of Real Estate,,Apartments at 71 Fulkerson St
222-223@62j-sgg-kxq,42.361795,-71.115721,Gasoline Stations,"{ ""Mon"": [[""0:00"", ""24:00""]], ""Tue"": [[""0:00"", ""24:00""]], ""Wed"": [[""0:00"", ""24:00""]], ""Thu"": [[""0:00"", ""24:00""]], ""Fri"": [[""0:00"", ""24:00""]], ""Sat"": [[""0:00"", ""24:00""]], ""Sun"": [[""0:00"", ""24:00""]] }",Shell Oil
223-222@62j-sj3-4d9,42.36282,-71.08749399999999,Restaurants and Other Eating Places,"{ ""Mon"": [[""11:00"", ""22:00""]], ""Tue"": [[""11:00"", ""22:00""]], ""Wed"": [[""11:00"", ""22:00""]], ""Thu"": [[""11:00"", ""22:00""]], ""Fri"": [[""11:00"", ""23:00""]], ""Sat"": [[""11:00"", ""23:00""]], ""Sun"": [[""12:00"", ""22:00""]] }",Legal Sea Foods
22c-222@62j-sgg-jvz,42.357603999999995,-71.108745,Lessors of Real Estate,,Apartments at 533 Putnam Ave
22m-222@62j-sj3-9j9,42.374469,-71.101504,Restaurants and Other Eating Places,"{ ""Mon"": [[""0:00"", ""1:00""], [""18:00"", ""24:00""]], ""Tue"": [[""0:00"", ""1:00""], [""18:00"", ""24:00""]], ""Wed"": [[""0:00"", ""1:00""], [""18:00"", ""24:00""]], ""Thu"": [[""0:00"", ""1:00""], [""18:00"", ""24:00""]], ""Fri"": [[""0:00"", ""1:00""], [""18:00"", ""24:00""]], ""Sat"": [[""0:00"", ""1:00""], [""12:00"", ""24:00""]], ""Sun"": [[""0:00"", ""1:00""], [""12:00"", ""24:00""]] }",Parlor Sports
22t-222@62j-sj3-7dv,42.377399,-71.097071,Lessors of Real Estate,,Apartments at 65 Newton St
22v-222@62j-sj2-47q,42.369659999999996,-71.09714,Lessors of Real Estate,,Apartments at 114 Elm St
22y-222@62j-sj2-v4v,42.374489000000004,-71.088359,Automobile Dealers,"{ ""Mon"": [[""9:00"", ""20:00""]], ""Tue"": [[""9:00"", ""20:00""]], ""Wed"": [[""9:00"", ""20:00""]], ""Thu"": [[""9:00"", ""20:00""]], ""Fri"": [[""9:00"", ""20:00""]], ""Sat"": [[""9:00"", ""17:00""]], ""Sun"": [[""10:00"", ""17:00""]] }",Instacar
23c-222@62j-sj3-8y9,42.376288,-71.102509,Lessors of Real Estate,,Apartments at 24 Dimick St
23q-226@62j-sj2-mrk,42.375352,-71.10699,Offices of Physicians,,Jathar Meera MD
23z-222@62j-sj2-rp9,42.366948,-71.10050799999999,Lessors of Real Estate,,Apartments at 103 Norfolk St
243-222@62j-sjv-bc5,42.373092,-71.119396,Restaurants and Other Eating Places,"{ ""Mon"": [[""0:00"", ""1:00""], [""11:00"", ""24:00""]], ""Tue"": [[""0:00"", ""1:00""], [""11:00"", ""24:00""]], ""Wed"": [[""0:00"", ""1:00""], [""11:00"", ""24:00""]], ""Thu"": [[""0:00"", ""1:00""], [""11:00"", ""24:00""]], ""Fri"": [[""0:00"", ""2:00""], [""11:00"", ""24:00""]], ""Sat"": [[""0:00"", ""2:00""], [""10:00"", ""24:00""]], ""Sun"": [[""0:00"", ""2:00""], [""10:00"", ""24:00""]] }",Russell House Tavern
245-222@62j-sj2-xdv,42.372927000000004,-71.088957,Lessors of Real Estate,,Apartments at 23 Marion St
248-222@62j-sj8-q4v,42.37899,-71.092291,"Justice, Public Order, and Safety Activities","{ ""Mon"": [[""0:00"", ""24:00""]], ""Tue"": [[""0:00"", ""24:00""]], ""Wed"": [[""0:00"", ""24:00""]], ""Thu"": [[""0:00"", ""24:00""]], ""Fri"": [[""0:00"", ""24:00""]], ""Sat"": [[""0:00"", ""24:00""]], ""Sun"": [[""0:00"", ""24:00""]] }",Somerville Fire Department Union Square Station
257-222@62j-sk2-pd9,42.377414,-71.104303,Lessors of Real Estate,,Apartments at 40 Calvin St
26s-222@62j-sjv-qxq,42.377793,-71.12219499999999,Offices of Other Health Practitioners,,Wexler Donald MD
26x-222@62j-sj2-jgk,42.369162,-71.10834200000001,Lessors of Real Estate,,Apartments at 4 Centre St
zzw-222@62j-sj2-q75,42.36435,-71.11083199999999,Lessors of Real Estate,,Condos at 21 Howard St
zzw-222@62j-sjv-ht9,42.36826,-71.112126,Lessors of Real Estate,,Apartments at 563 Franklin St
222-223@62j-sj2-hh5,42.369854,-71.10289300000001,Lessors of Real Estate,,Apartments at 342 Broadway
223-224@62j-sjv-9mk,42.373476000000004,-71.120052,Restaurants and Other Eating Places,,Harvard COOP Cafe
22b-222@62j-sj2-vxq,42.372646,-71.082701,Lessors of Real Estate,,Apartments at 100 Winter St
22h-222@62j-sgg-fvf,42.359047,-71.112566,Lessors of Real Estate,,Apartments at 225 Chestnut St
22j-222@62j-sk2-qpv,42.378048,-71.10855,Lessors of Real Estate,,Apartments at 79 Kirkland St
22n-222@62j-sj2-8d9,42.371339,-71.095575,Specialized Freight Trucking,,Big Bros Moving
22s-222@62j-sj2-mx5,42.376008,-71.108807,Lessors of Real Estate,,Condos at 15 Roberts Rd
232-223@62j-sjv-nbk,42.375399,-71.12448,Lessors of Real Estate,,Apartments at 86 Brattle St
234-222@62j-sj3-87q,42.374836,-71.096235,Lessors of Real Estate,,Apartments at 181 Tremont St
235-222@62j-sj3-94v,42.376751,-71.099316,Lessors of Real Estate,,Apartments at 61 Concord Ave
23h-222@62j-sj2-4vz,42.366696999999995,-71.09395500000001,Lessors of Real Estate,,Apartments at 2 Market St
23n-222@62j-sgg-gp9,42.357131,-71.11149,Lessors of Real Estate,,Apartments at 12 Tufts St
23z-222@62j-sgg-k75,42.357592,-71.106607,Lessors of Real Estate,,Apartments at 80 Allston St
242-222@62j-sj2-jsq,42.370197999999995,-71.106597,Lessors of Real Estate,,Apartments at 148 Hancock St
245-222@62j-sj2-kj9,42.374049,-71.101776,Lessors of Real Estate,,Apartments at 1423 Cambridge St
24d-223@62j-sj2-5s5,42.368125,-71.09843000000001,Child Day Care Services,,290 Broadway Street
24q-222@62j-sj3-9vf,42.375605,-71.100313,Lessors of Real Estate,,Apartments at 8 Dickinson St
254-222@62j-sk2-p7q,42.377849,-71.107487,Grocery Stores,,Savenor's Market
25f-222@62j-sk3-3yv,42.37966,-71.12306,Lessors of Real Estate,,Apartments at 21 Chauncy St
223-222@62j-sj2-8d9,42.371054,-71.09631,Lessors of Real Estate,,Apartments at 178 Elm St
22c-222@62j-sj3-4d9,42.363462,-71.08755,Other Financial Investment Activities,"{ ""Mon"": [[""9:00"", ""17:00""]], ""Tue"": [[""9:00"", ""17:00""]], ""Wed"": [[""9:00"", ""17:00""]], ""Thu"": [[""9:00"", ""17:00""]], ""Fri"": [[""9:00"", ""17:00""]], ""Sat"": [], ""Sun"": [] }",Merrill Lynch
22g-222@62j-sj2-nyv,42.363458,-71.105175,Lessors of Real Estate,,Apartments at 164 Auburn St
22k-222@62j-sjv-9mk,42.373559,-71.119619,Restaurants and Other Eating Places,"{ ""Mon"": [[""11:00"", ""21:00""]], ""Tue"": [], ""Wed"": [], ""Thu"": [[""11:00"", ""21:00""]], ""Fri"": [[""11:00"", ""21:00""]], ""Sat"": [[""11:00"", ""21:00""]], ""Sun"": [[""11:00"", ""21:00""]] }",&pizza
22v-222@62j-sj2-vvf,42.370569,-71.08521,Religious Organizations,,Sacred Heart Rectory
22v-222@62j-sjv-bc5,42.372917,-71.119156,Restaurants and Other Eating Places,"{ ""Mon"": [[""11:00"", ""24:00""]], ""Tue"": [[""11:00"", ""24:00""]], ""Wed"": [[""11:00"", ""24:00""]], ""Thu"": [[""11:00"", ""24:00""]], ""Fri"": [[""11:00"", ""24:00""]], ""Sat"": [[""11:00"", ""24:00""]], ""Sun"": [[""11:00"", ""24:00""]] }",The Hourly Oyster House
23g-222@62j-sj3-9cq,42.373942,-71.098933,Lessors of Real Estate,,Apartments at 10 Oakland St
243-225@62j-sjt-kxq,42.372283,-71.12325799999999,Furniture Stores,,Henrietta's Table
25x-223@62j-sjv-8jv,42.371255,-71.11466300000001,Restaurants and Other Eating Places,"{ ""Mon"": [[""11:00"", ""20:30""]], ""Tue"": [[""11:00"", ""20:30""]], ""Wed"": [[""11:00"", ""20:30""]], ""Thu"": [[""11:00"", ""20:30""]], ""Fri"": [[""11:00"", ""20:30""]], ""Sat"": [[""11:00"", ""20:30""]], ""Sun"": [[""11:00"", ""20:30""]] }",Kung Fu Tea
26b-222@62j-sj2-swk,42.365707,-71.108046,Lessors of Real Estate,,Apartments at 13 Soden St
27g-224@62j-sj2-jqf,42.368581,-71.110261,Religious Organizations,,International Buddhist Progress
27m-222@62j-sj2-jjv,42.367674,-71.1079,Lessors of Real Estate,,Apartments at 880 Massachusetts Ave
27v-222@62j-sj2-jqf,42.368046,-71.110421,Lessors of Real Estate,,Apartments at 568 Green St
2cf-223@62j-sj2-p7q,42.364746000000004,-71.10505500000001,Religious Organizations,,Bethel Christian Center Inc
zzw-225@62j-sj3-b6k,42.3798,-71.097157,Lessors of Real Estate,,Apartments at 265 Washington St
zzy-224@62j-sj2-ckf,42.359037,-71.094755,Depository Credit Intermediation,,MIT Federal Credit Union
223-223@62j-sj8-nt9,42.379121999999995,-71.086874,Automotive Repair and Maintenance,,DM Auto
225-222@62j-sj2-j35,42.370582,-71.112216,Lessors of Real Estate,,Apartments at 12 Trowbridge St
227-225@62j-sjv-bc5,42.372909,-71.120504,Book Stores and News Dealers,,The Million Year Picnic
229-222@62j-sk2-pd9,42.378049,-71.104325,Lessors of Real Estate,,Apartments at 21 Calvin St
22b-222@62j-sj2-4qf,42.366153000000004,-71.092508,Electronics and Appliance Stores,,Mitsubishi Electric Research Labs
22j-222@62j-sj2-nwk,42.36432,-71.105621,Lessors of Real Estate,,Apartments at 13 Magazine St
22t-222@62j-sgg-ks5,42.362294,-71.113974,Lessors of Real Estate,,Apartments at 321 River St
22y-222@62j-sj2-66k,42.366346,-71.099438,Lessors of Real Estate,,Apartments at 13 Suffolk St
22z-222@62j-sk2-s3q,42.378921000000005,-71.102335,Lessors of Real Estate,,Condos at 9 Parkdale St
23f-222@62j-sjv-9mk,42.374106,-71.119212,,,Otto
23x-222@62j-sjv-9zz,42.371963,-71.120281,Restaurants and Other Eating Places,"{ ""Mon"": [[""11:00"", ""24:00""]], ""Tue"": [[""0:00"", ""1:00""], [""11:00"", ""24:00""]], ""Wed"": [[""0:00"", ""1:00""], [""11:00"", ""24:00""]], ""Thu"": [[""0:00"", ""1:00""], [""11:00"", ""24:00""]], ""Fri"": [[""0:00"", ""1:00""], [""11:00"", ""24:00""]], ""Sat"": [[""0:00"", ""2:30""], [""11:00"", ""24:00""]], ""Sun"": [[""0:00"", ""2:30""], [""13:00"", ""24:00""]] }",Pinocchios Pizza & Subs
245-222@62j-sjv-f75,42.365456,-71.114414,Lessors of Real Estate,,Apartments at 5 Elmer St
24v-222@62j-sgg-j9z,42.36173,-71.111974,Lessors of Real Estate,,Apartments at 15 Andrew St
257-222@62j-sj2-x5z,42.370979,-71.089812,Lessors of Real Estate,,Apartments at 19 Marney St
26k-222@62j-sj2-89z,42.372443,-71.09551,Lessors of Real Estate,,Apartments at 248 Elm St
26w-222@62j-sjv-f75,42.365776000000004,-71.114644,Lessors of Real Estate,,Apartments at 218 Banks St
289-222@62j-sj2-wc5,42.373594,-71.090594,Lessors of Real Estate,,Apartments at 33B Harding St
zzw-222@62j-sjv-8sq,42.371331,-71.11568,Religious Organizations,,The Church of St Paul Harvard Square
223-222@62j-sgg-fpv,42.358315999999995,-71.114231,Grocery Stores,"{ ""Mon"": [[""8:00"", ""21:00""]], ""Tue"": [[""8:00"", ""21:00""]], ""Wed"": [[""8:00"", ""21:00""]], ""Thu"": [[""8:00"", ""21:00""]], ""Fri"": [[""8:00"", ""21:00""]], ""Sat"": [[""8:00"", ""21:00""]], ""Sun"": [[""8:00"", ""21:00""]] }",Trader Joe's
226-222@62j-sj2-4d9,42.369732,-71.09421400000001,Lessors of Real Estate,,Apartments at 350 Windsor St
22j-222@62j-sj2-bx5,42.361782,-71.097149,Restaurants and Other Eating Places,,Beantown Taqueria
22k-222@62j-sj2-7t9,42.370409,-71.090365,Lessors of Real Estate,,Apartments at 28 Marney St
22y-222@62j-sj2-75z,42.372563,-71.09312299999999,Lessors of Real Estate,,Apartments at 960 Cambridge St
234-222@62j-sj3-8qf,42.377108,-71.10234100000001,Lessors of Real Estate,,Apartments at 78 Marion St
234-222@62j-sjv-mzf,42.374194,-71.125742,Offices of Other Health Practitioners,"{ ""Mon"": [[""9:00"", ""17:00""]], ""Tue"": [[""9:00"", ""17:00""]], ""Wed"": [[""9:00"", ""17:00""]], ""Thu"": [[""9:00"", ""17:00""]], ""Fri"": [[""9:00"", ""17:00""]], ""Sat"": [], ""Sun"": [] }",Baltzer R Caroline Phd
236-222@62j-sj2-p35,42.364458,-71.102547,Department Stores,"{ ""Mon"": [[""7:00"", ""22:00""]], ""Tue"": [[""7:00"", ""22:00""]], ""Wed"": [[""7:00"", ""22:00""]], ""Thu"": [[""7:00"", ""22:00""]], ""Fri"": [[""7:00"", ""22:00""]], ""Sat"": [[""7:00"", ""22:00""]], ""Sun"": [[""7:00"", ""22:00""]] }",Target
239-222@62j-sj2-vmk,42.371796,-71.08489399999999,Lessors of Real Estate,,Apartments at 521 Cambridge St
23f-222@62j-sj2-h89,42.368055,-71.103444,Lessors of Real Estate,,Apartments at 18 Saint Paul St
26n-225@62j-sjv-j7q,42.370698,-71.113341,Restaurants and Other Eating Places,,New Asia
zzw-222@62j-sj3-9j9,42.37449,-71.10159499999999,Activities Related to Credit Intermediation,"{ ""Mon"": [[""8:00"", ""21:00""]], ""Tue"": [[""8:00"", ""21:00""]], ""Wed"": [[""8:00"", ""21:00""]], ""Thu"": [[""8:00"", ""21:00""]], ""Fri"": [[""8:00"", ""21:00""]], ""Sat"": [[""8:00"", ""21:00""]], ""Sun"": [[""8:00"", ""21:00""]] }",Western Union
zzw-222@62j-sjv-8y9,42.370810999999996,-71.113478,Personal Care Services,"{ ""Mon"": [], ""Tue"": [[""12:00"", ""19:00""]], ""Wed"": [[""11:00"", ""19:00""]], ""Thu"": [[""11:00"", ""19:00""]], ""Fri"": [[""11:00"", ""19:00""]], ""Sat"": [[""9:00"", ""17:00""]], ""Sun"": [] }",Salon BellaMar
zzw-223@62j-sj3-9j9,42.374846000000005,-71.101812,Lessors of Real Estate,,Apartments at 11A Beacon St
zzy-222@62j-sj2-xdv,42.373228000000005,-71.089238,Lessors of Real Estate,,Condos at 19 5 Jefferson St
zzy-223@62j-sj2-vcq,42.373806,-71.084854,Other Personal Services,"{ ""Mon"": [[""9:00"", ""21:00""]], ""Tue"": [[""9:00"", ""21:00""]], ""Wed"": [[""9:00"", ""21:00""]], ""Thu"": [[""9:00"", ""21:00""]], ""Fri"": [[""9:00"", ""21:00""]], ""Sat"": [[""9:00"", ""19:00""]], ""Sun"": [[""9:00"", ""19:00""]] }",Skin to Soul Massage Somerville
226-222@62j-sj2-c3q,42.362452000000005,-71.098,Restaurants and Other Eating Places,"{ ""Mon"": [[""11:00"", ""23:00""]], ""Tue"": [[""11:00"", ""23:00""]], ""Wed"": [[""11:00"", ""23:00""]], ""Thu"": [[""11:00"", ""24:00""]], ""Fri"": [[""11:00"", ""24:00""]], ""Sat"": [[""11:00"", ""24:00""]], ""Sun"": [[""11:00"", ""23:00""]] }",Naco Taco
226-222@62j-sj2-mff,42.374078000000004,-71.107716,Lessors of Real Estate,,Apartments at 73 Dana St
229-222@62j-sgg-k2k,42.35739,-71.109537,Lessors of Real Estate,,Apartments at 23 Acorn St
22h-222@62j-sj2-6ff,42.366273,-71.095582,Restaurants and Other Eating Places,"{ ""Mon"": [[""10:00"", ""18:00""]], ""Tue"": [[""10:00"", ""18:00""]], ""Wed"": [[""10:00"", ""18:00""]], ""Thu"": [[""10:00"", ""18:00""]], ""Fri"": [[""10:00"", ""18:00""]], ""Sat"": [[""10:00"", ""18:00""]], ""Sun"": [] }",Izzy's Restaurant & Sub Shop
22h-222@62j-sj3-9cq,42.374748,-71.099537,Lessors of Real Estate,,Apartments at 73 Oak St
22k-222@62j-sjv-bc5,42.372738,-71.119668,Other Schools and Instruction,"{ ""Mon"": [[""10:00"", ""18:30""]], ""Tue"": [[""10:00"", ""18:30""]], ""Wed"": [[""10:00"", ""18:30""]], ""Thu"": [[""10:00"", ""18:30""]], ""Fri"": [[""10:00"", ""18:30""]], ""Sat"": [[""10:00"", ""18:30""]], ""Sun"": [] }",The Academy at Harvard Square
22w-222@62j-sj3-52k,42.368444000000004,-71.082727,Lessors of Real Estate,,Apartments at 254 Hurley St
23m-222@62j-sj2-vpv,42.371041999999996,-71.084184,Lessors of Real Estate,,Apartments at 129 Otis St
255-222@62j-sgg-k9f,42.359373,-71.109131,Lessors of Real Estate,,Apartments at 211 Allston St
25q-222@62j-sj2-4gk,42.368545000000005,-71.094288,Lessors of Real Estate,,Apartments at 54 Portsmouth St
26f-222@62j-sj3-52k,42.368013,-71.08279499999999,Lessors of Real Estate,,Apartments at 157 Charles St
27d-222@62j-sj2-jgk,42.368824,-71.107956,Lessors of Real Estate,,Apartments at 90 Hancock St
2hg-223@62j-sj2-jjv,42.368168,-71.108721,Lessors of Real Estate,,Apartments at 912 Massachusetts Ave
zzw-225@62j-sj2-vs5,42.372527000000005,-71.085976,Lessors of Real Estate,,Apartments at 170 Gore St
222-222@62j-sjv-b6k,42.37275,-71.11740999999999,Personal and Household Goods Repair and Maintenance,"{ ""Mon"": [[""9:00"", ""18:00""]], ""Tue"": [[""9:00"", ""18:00""]], ""Wed"": [[""9:00"", ""18:00""]], ""Thu"": [[""9:00"", ""18:00""]], ""Fri"": [[""9:00"", ""18:00""]], ""Sat"": [], ""Sun"": [] }",Felix Shoe Repair
228-22d@62j-sj2-k4v,42.374519,-71.10416,Offices of Physicians,,Louis Liou MD
22c-223@62j-sj3-4d9,42.363475,-71.087532,Depository Credit Intermediation,"{ ""Mon"": [[""9:00"", ""16:00""]], ""Tue"": [[""9:00"", ""16:00""]], ""Wed"": [[""9:00"", ""16:00""]], ""Thu"": [[""9:00"", ""16:00""]], ""Fri"": [[""9:00"", ""16:00""]], ""Sat"": [[""9:00"", ""13:00""]], ""Sun"": [] }",Bank of America
22f-222@62j-sjv-9mk,42.373597,-71.119733,Lessors of Real Estate,,Apartments at 4 Brattle Dr
22n-222@62j-sjv-99f,42.373771999999995,-71.121024,Lessors of Real Estate,,Apartments at 41 Brattle St
22n-222@62j-sjv-9zz,42.371777,-71.120631,Restaurants and Other Eating Places,"{ ""Mon"": [[""7:00"", ""15:00""]], ""Tue"": [[""7:00"", ""15:00""]], ""Wed"": [[""7:00"", ""15:00""]], ""Thu"": [[""7:00"", ""15:00""]], ""Fri"": [[""7:00"", ""15:00""]], ""Sat"": [[""8:00"", ""16:00""]], ""Sun"": [[""8:00"", ""16:00""]] }",Black Sheep Bagel Cafe
22s-222@62j-sj2-4vz,42.366355,-71.094301,Restaurants and Other Eating Places,"{ ""Mon"": [[""11:00"", ""21:30""]], ""Tue"": [[""11:00"", ""21:30""]], ""Wed"": [[""11:00"", ""21:30""]], ""Thu"": [[""11:00"", ""21:30""]], ""Fri"": [[""11:00"", ""22:30""]], ""Sat"": [[""11:00"", ""22:30""]], ""Sun"": [[""11:00"", ""21:30""]] }",Mu Lan
22s-22d@62j-sjv-bc5,42.372628000000006,-71.119905,Other Amusement and Recreation Industries,"{ ""Mon"": [[""6:45"", ""20:30""]], ""Tue"": [[""6:15"", ""19:45""]], ""Wed"": [[""6:45"", ""19:45""]], ""Thu"": [[""6:15"", ""19:45""]], ""Fri"": [[""6:45"", ""18:30""]], ""Sat"": [[""8:30"", ""13:15""]], ""Sun"": [[""8:00"", ""18:00""]] }",Barre Soul
22x-222@62j-sjv-ndv,42.373892,-71.12378000000001,"Management, Scientific, and Technical Consulting Services",,Pinney & Scofield
22y-222@62j-sk2-nt9,42.379232,-71.107271,Lessors of Real Estate,,Apartments at 155 Beacon St
23b-222@62j-sj2-6c5,42.366725,-71.096604,Lessors of Real Estate,,Apartments at 181 Harvard St
292-222@62j-sjv-py9,42.380077,-71.125312,Lessors of Real Estate,,Apartments at 50 Garden St
2c5-222@62j-sj2-x89,42.372134,-71.087232,Child Day Care Services,,The Learning Circle Childcare Llc
zzw-222@62j-sj2-k9f,42.374970000000005,-71.105193,Offices of Physicians,,Cambridge Health Alliance
zzw-222@62j-sj3-3kf,42.365423,-71.088532,Management of Companies and Enterprises,,Biogen
zzz-222@62j-sjv-kcq,42.369477,-71.115898,"Museums, Historical Sites, and Similar Institutions",,Unkown Park
223-222@62j-sj2-85f,42.371996,-71.098403,Lessors of Real Estate,,Apartments at 167 Hampshire St
227-224@62j-sj2-t35,42.3655,-71.104487,"Agencies, Brokerages, and Other Insurance Related Activities","{ ""Mon"": [[""9:00"", ""18:00""]], ""Tue"": [[""9:00"", ""18:00""]], ""Wed"": [[""9:00"", ""18:00""]], ""Thu"": [[""9:00"", ""18:00""]], ""Fri"": [[""9:00"", ""18:00""]], ""Sat"": [[""9:00"", ""13:00""]], ""Sun"": [] }",Allstate Insurance
228-222@62j-sj2-5j9,42.369707,-71.10141899999999,Activities Related to Real Estate,,Wilkins Management
229-222@62j-sj3-c5z,42.378239,-71.092759,Lessors of Real Estate,,Townhouses at 3 Linden St
22b-222@62j-sj2-6p9,42.371939000000005,-71.092404,Lessors of Real Estate,,Apartments at 88 Willow St
22d-222@62j-sk2-s3q,42.379132,-71.101977,"Office Supplies, Stationery, and Gift Stores",,Bomas Machine Specialties Inc
22d-223@62j-sk2-p35,42.377481,-71.105723,Lessors of Real Estate,,Apartments at 108 Beacon St
22j-222@62j-sj2-jvz,42.368972,-71.106367,Lessors of Real Estate,,Apartments at 30 Lee St
23d-222@62j-sj2-k75,42.373329,-71.102819,Lessors of Real Estate,,Apartments at 61 Fayette St
23k-222@62j-sj3-b8v,42.379497,-71.095863,Activities Related to Credit Intermediation,"{ ""Mon"": [[""8:30"", ""22:00""]], ""Tue"": [[""8:30"", ""22:00""]], ""Wed"": [[""8:30"", ""22:00""]], ""Thu"": [[""8:30"", ""22:00""]], ""Fri"": [[""8:30"", ""22:00""]], ""Sat"": [[""8:30"", ""22:00""]], ""Sun"": [[""10:00"", ""19:00""]] }",Western Union
23n-222@62j-sj2-h89,42.367359,-71.103882,Lessors of Real Estate,,Apartments at 5 Austin Park
23n-223@62j-sj2-85f,42.37254,-71.099082,Gasoline Stations,"{ ""Mon"": [[""0:00"", ""24:00""]], ""Tue"": [[""0:00"", ""24:00""]], ""Wed"": [[""0:00"", ""24:00""]], ""Thu"": [[""0:00"", ""24:00""]], ""Fri"": [[""0:00"", ""24:00""]], ""Sat"": [[""0:00"", ""24:00""]], ""Sun"": [[""0:00"", ""24:00""]] }",Shell Oil
243-222@62j-sgg-fj9,42.358365,-71.112225,Lessors of Real Estate,,Apartments at 143 Magazine St
24q-222@62j-sj2-qzz,42.362264,-71.105048,Lessors of Real Estate,,Condos at 102 Pearl St
25w-229@62j-sjv-j35,42.369639,-71.111198,Health and Personal Care Stores,,Cannabax
26j-222@62j-sj2-6p9,42.371938,-71.09239000000001,Lessors of Real Estate,,Apartments at 82 84 Willow St
26k-222@62j-sj2-x3q,42.37242,-71.089787,"Accounting, Tax Preparation, Bookkeeping, and Payroll Services",,GTS Tax Service
zzw-222@62j-sjv-975,42.374213,-71.121184,Restaurants and Other Eating Places,"{ ""Mon"": [[""5:00"", ""22:00""]], ""Tue"": [[""5:00"", ""22:00""]], ""Wed"": [[""5:00"", ""22:00""]], ""Thu"": [[""5:00"", ""22:00""]], ""Fri"": [[""5:00"", ""22:00""]], ""Sat"": [[""5:00"", ""22:00""]], ""Sun"": [[""6:00"", ""22:00""]] }",Dunkin'
zzy-223@62j-sj2-mkz,42.374572,-71.10994699999999,Other Amusement and Recreation Industries,"{ ""Mon"": [[""15:30"", ""20:30""]], ""Tue"": [[""15:30"", ""20:30""]], ""Wed"": [[""15:30"", ""20:30""]], ""Thu"": [[""15:30"", ""20:30""]], ""Fri"": [[""15:30"", ""20:30""]], ""Sat"": [[""8:30"", ""16:30""]], ""Sun"": [[""11:30"", ""16:30""]] }",Cambridge War Memorial Recreation Center
zzy-224@62j-sjv-85f,42.373371,-71.118965,Restaurants and Other Eating Places,"{ ""Mon"": [[""5:00"", ""23:30""]], ""Tue"": [[""5:00"", ""23:30""]], ""Wed"": [[""5:00"", ""23:30""]], ""Thu"": [[""5:00"", ""23:30""]], ""Fri"": [[""5:00"", ""23:30""]], ""Sat"": [[""5:00"", ""23:30""]], ""Sun"": [[""6:00"", ""22:00""]] }",Dunkin'
222-223@62j-sj2-6zf,42.372719000000004,-71.091705,Lessors of Real Estate,,Condos at 889 Cambridge St
22b-222@62j-sj2-k9f,42.37498,-71.105183,Offices of Physicians,"{ ""Mon"": [], ""Tue"": [[""10:00"", ""24:00""]], ""Wed"": [], ""Thu"": [[""10:00"", ""24:00""]], ""Fri"": [], ""Sat"": [], ""Sun"": [] }",CHA Cambridge Breastfeeding Support Group
22k-222@62j-sj2-v75,42.373357,-71.088223,Lessors of Real Estate,,Apartments at 8 Porter St
22n-222@62j-sj2-5pv,42.369658,-71.099153,Lessors of Real Estate,,Apartments at 14 Tremont St
22p-222@62j-sj3-85f,42.373739,-71.095189,Lessors of Real Estate,,Apartments at 307 Elm St
22w-222@62j-sj3-cqz,42.379704,-71.09782299999999,Lessors of Real Estate,,Apartments at 279 Washington St
22w-222@62j-sjv-b6k,42.372811,-71.117538,Other Miscellaneous Store Retailers,,Leavitt & Peirce Tobacco
234-222@62j-sj2-835,42.371041,-71.096734,Lessors of Real Estate,,Apartments at 171 Elm St
236-222@62j-sj2-j35,42.371188000000004,-71.11298199999999,Lessors of Real Estate,,Condos at 371 Harvard St
238-222@62j-sk2-pgk,42.37634,-71.104286,"Other Professional, Scientific, and Technical Services","{ ""Mon"": [[""8:00"", ""17:00""]], ""Tue"": [[""8:00"", ""17:00""]], ""Wed"": [[""8:00"", ""18:00""]], ""Thu"": [[""8:00"", ""19:00""]], ""Fri"": [[""8:00"", ""18:00""]], ""Sat"": [[""8:00"", ""14:00""]], ""Sun"": [] }",Huron Veterinary Hospital
23f-223@62j-sj2-435,42.369043,-71.094803,Other Amusement and Recreation Industries,"{ ""Mon"": [], ""Tue"": [[""11:00"", ""12:00""]], ""Wed"": [], ""Thu"": [[""11:00"", ""12:00""]], ""Fri"": [], ""Sat"": [], ""Sun"": [] }",Come to Yoga With Barbara Lyon
23q-222@62j-sj2-w8v,42.37417,-71.09044899999999,Lessors of Real Estate,,Apartments at 55 Harding St
24g-222@62j-sj3-9pv,42.374748,-71.098112,Lessors of Real Estate,,Apartments at 13 Houghton St
24j-222@62j-sj2-835,42.371118,-71.096688,Lessors of Real Estate,,Condos at 175 Elm St
24r-223@62j-sk2-p9z,42.37639,-71.107858,Lessors of Real Estate,,Apartments at 5 Baldwin St Ct
27c-222@62j-sj2-89z,42.372925,-71.095545,Lessors of Real Estate,,Apartments at 1096 Cambridge St
zzw-222@62j-sj3-cqz,42.380002000000005,-71.097531,Drugs and Druggists' Sundries Merchant Wholesalers,,Liberty Somerville
zzw-225@62j-sj3-33q,42.362741,-71.083575,"Accounting, Tax Preparation, Bookkeeping, and Payroll Services","{ ""Mon"": [[""8:00"", ""18:00""]], ""Tue"": [[""8:00"", ""18:00""]], ""Wed"": [[""8:00"", ""18:00""]], ""Thu"": [[""8:00"", ""18:00""]], ""Fri"": [[""8:00"", ""18:00""]], ""Sat"": [], ""Sun"": [] }",Shen Gen Accounting
zzy-222@62j-sj2-6zf,42.372693,-71.091571,Child Day Care Services,,Aster Montessori School
225-222@62j-sk2-nt9,42.379414000000004,-71.105898,Lessors of Real Estate,,Apartments at 5 Durham St
225-224@62j-sjv-j35,42.369487,-71.110946,Lessors of Real Estate,,Apartments at 991 Massachusetts Ave
229-222@62j-sjv-btv,42.37769,-71.113837,"Colleges, Universities, and Professional Schools",,Harvard Yenching Library
229-222@62j-sjv-jjv,42.366383,-71.111878,Lessors of Real Estate,,Apartments at 35 Magee St
22b-222@62j-sj2-85f,42.372253,-71.099372,Activities Related to Credit Intermediation,"{ ""Mon"": [], ""Tue"": [], ""Wed"": [], ""Thu"": [], ""Fri"": [], ""Sat"": [[""0:00"", ""24:00""]], ""Sun"": [] }",Western Union
22d-222@62j-sj2-qj9,42.364725,-71.109172,Lessors of Real Estate,,Apartments at 158 Western Ave
22h-222@62j-sj3-8vz,42.377623,-71.103201,Lessors of Real Estate,,Apartments at 11 Lewis St
234-222@62j-sj2-4qf,42.36598,-71.093373,Other Schools and Instruction,"{ ""Mon"": [[""11:00"", ""22:00""]], ""Tue"": [[""11:00"", ""22:00""]], ""Wed"": [[""11:00"", ""22:00""]], ""Thu"": [[""11:00"", ""22:00""]], ""Fri"": [[""11:00"", ""22:00""]], ""Sat"": [[""11:00"", ""22:00""]], ""Sun"": [[""11:00"", ""22:00""]] }",Trevor Klee Tutor
23c-222@62j-sjv-fvf,42.36272,-71.11279,Lessors of Real Estate,,Condos at 277 River St
23m-222@62j-sj2-5vf,42.369845,-71.099565,Lessors of Real Estate,,Apartments at 17 Tremont St
246-222@62j-sj2-jn5,42.369501,-71.10946700000001,Lessors of Real Estate,,Apartments at 18 Centre St
247-222@62j-sj2-x3q,42.372509,-71.08997,Lessors of Real Estate,,Apartments at 799 Cambridge St
24b-222@62j-sjv-g8v,42.36469,-71.113258,Restaurants and Other Eating Places,"{ ""Mon"": [[""11:00"", ""22:00""]], ""Tue"": [[""11:00"", ""22:00""]], ""Wed"": [[""11:00"", ""22:00""]], ""Thu"": [[""11:00"", ""22:00""]], ""Fri"": [[""11:00"", ""22:00""]], ""Sat"": [[""11:00"", ""22:00""]], ""Sun"": [[""15:00"", ""22:00""]] }",Basta Pasta Trattoria
25x-222@62j-sj2-j9z,42.372968,-71.110736,Restaurants and Other Eating Places,"{ ""Mon"": [[""9:00"", ""17:00""]], ""Tue"": [[""9:00"", ""17:00""]], ""Wed"": [[""9:00"", ""17:00""]], ""Thu"": [[""9:00"", ""17:00""]], ""Fri"": [[""9:00"", ""17:00""]], ""Sat"": [], ""Sun"": [] }",Angelo's Pizza
zzz-222@62j-sj2-mkz,42.374563,-71.10969300000001,"Museums, Historical Sites, and Similar Institutions",,War Memorial Pool
225-224@62j-sj2-jn5,42.369183,-71.110062,Couriers and Express Delivery Services,"{ ""Mon"": [[""8:30"", ""19:30""]], ""Tue"": [[""8:30"", ""19:30""]], ""Wed"": [[""8:30"", ""19:30""]], ""Thu"": [[""8:30"", ""19:30""]], ""Fri"": [[""8:30"", ""19:30""]], ""Sat"": [[""9:00"", ""17:00""]], ""Sun"": [[""10:00"", ""14:00""]] }",The UPS Store
228-222@62j-sgg-4vz,42.356594,-71.107062,Religious Organizations,,India Heritage Foundation Boston
22f-222@62j-sj2-7t9,42.369791,-71.090684,Lessors of Real Estate,,Apartments at 26 Hardwick St
23c-224@62j-sk2-nt9,42.378934,-71.106752,Lessors of Real Estate,,Condos at 147 Beacon St
23j-222@62j-sj2-6hq,42.367323,-71.097866,Lessors of Real Estate,,Apartments at 161 Columbia St
249-222@62j-sj2-jgk,42.36893,-71.108583,Lessors of Real Estate,,Apartments at 85 Hancock St
25w-225@62j-sjv-j35,42.369702000000004,-71.111138,"Sporting Goods, Hobby, and Musical Instrument Stores","{ ""Mon"": [[""11:00"", ""19:00""]], ""Tue"": [[""11:00"", ""19:00""]], ""Wed"": [[""11:00"", ""19:00""]], ""Thu"": [[""11:00"", ""19:00""]], ""Fri"": [[""11:00"", ""19:00""]], ""Sat"": [[""11:00"", ""19:00""]], ""Sun"": [[""12:00"", ""17:00""]] }",CrimsonBikes
zzw-222@62j-sj2-jqf,42.368107,-71.108975,Lessors of Real Estate,,Apartments at 56 Hancock St
zzw-222@62j-sj3-3qz,42.365551,-71.09015699999999,Restaurants and Other Eating Places,"{ ""Mon"": [[""11:00"", ""20:00""]], ""Tue"": [[""11:00"", ""20:00""]], ""Wed"": [[""11:00"", ""20:00""]], ""Thu"": [[""11:00"", ""20:00""]], ""Fri"": [[""11:00"", ""20:00""]], ""Sat"": [[""11:00"", ""20:00""]], ""Sun"": [[""11:00"", ""20:00""]] }",Bon Me One Kendall Square
zzw-224@62j-sj2-vs5,42.371604999999995,-71.085311,Offices of Dentists,"{ ""Mon"": [], ""Tue"": [[""9:00"", ""17:00""]], ""Wed"": [[""9:00"", ""15:00""]], ""Thu"": [[""9:00"", ""17:00""]], ""Fri"": [], ""Sat"": [[""9:00"", ""13:30""]], ""Sun"": [] }",Charles W Malta DDS
zzy-222@62j-sj2-h5z,42.369153000000004,-71.103321,Lessors of Real Estate,,Apartments at 44 Inman St
22g-222@62j-sj2-t35,42.365432,-71.104613,Restaurants and Other Eating Places,,Aleppo Palace
22h-222@62j-sjv-g8v,42.365039,-71.112782,Lessors of Real Estate,,Apartments at 18 Hews St
22m-222@62j-sj2-qvf,42.360894,-71.107968,Lessors of Real Estate,,Condos at 20 Corporal McTernan St
22v-222@62j-sj2-kj9,42.37421,-71.102577,Lessors of Real Estate,,Apartments at 1445 Cambridge St
23c-222@62j-sj3-6hq,42.368274,-71.08509000000001,Lessors of Real Estate,,Apartments at 235 Charles St
23j-222@62j-sj2-j9z,42.372648,-71.11081899999999,Lessors of Real Estate,,Townhouses at 54 Trowbridge St
23j-222@62j-sj2-vpv,42.370901,-71.08346,Lessors of Real Estate,,Apartments at 71 5th St
23r-222@62j-sj2-89z,42.372456,-71.095568,Lessors of Real Estate,,Condos at 252 Elm St
23t-222@62j-sgg-j7q,42.360193,-71.11013,Restaurants and Other Eating Places,,Black Sheep Market
23t-222@62j-sjv-bc5,42.373152000000005,-71.120237,Lessors of Real Estate,,Apartments at 20 Brattle St
247-222@62j-sj8-py9,42.378346,-71.090901,Lessors of Real Estate,,Apartments at 7 Rossmore St
249-222@62j-sj3-8jv,42.376375,-71.095678,Lessors of Real Estate,,Apartments at 229 Tremont St
257-222@62j-sj3-bzf,42.377987,-71.091533,Bakeries and Tortilla Manufacturing,"{ ""Mon"": [[""6:30"", ""15:00""]], ""Tue"": [], ""Wed"": [[""6:30"", ""15:00""]], ""Thu"": [[""6:30"", ""15:00""]], ""Fri"": [[""6:30"", ""15:00""]], ""Sat"": [[""7:30"", ""16:00""]], ""Sun"": [[""7:30"", ""16:00""]] }",Vinal Bakery
27c-222@62j-sjv-8jv,42.371881,-71.115421,Electronic and Precision Equipment Repair and Maintenance,,Boston iPhone Repair
zzw-225@62j-sgg-kvf,42.360997,-71.11394399999999,Restaurants and Other Eating Places,"{ ""Mon"": [[""8:00"", ""22:00""]], ""Tue"": [[""8:00"", ""22:00""]], ""Wed"": [[""8:00"", ""22:00""]], ""Thu"": [[""8:00"", ""22:00""]], ""Fri"": [[""8:00"", ""22:00""]], ""Sat"": [[""8:00"", ""22:00""]], ""Sun"": [[""8:00"", ""22:00""]] }",Genji Sushi Bars
zzw-22f@62j-sjv-9fz,42.373239,-71.122156,Lessors of Real Estate,,115 Mt Auburn Furnished & Unfurnished Units
226-222@62j-sj3-4d9,42.363277000000004,-71.08782,Lessors of Real Estate,,Proto
22m-225@62j-sj2-rc5,42.366784,-71.102375,Lessors of Real Estate,,Condos at 76 Prospect St
23k-223@62j-sj3-b8v,42.379513,-71.09585200000001,Depository Credit Intermediation,"{ ""Mon"": [[""8:30"", ""20:00""]], ""Tue"": [[""8:30"", ""20:00""]], ""Wed"": [[""8:30"", ""20:00""]], ""Thu"": [[""8:30"", ""20:30""]], ""Fri"": [[""8:30"", ""21:00""]], ""Sat"": [[""8:30"", ""20:00""]], ""Sun"": [[""10:00"", ""18:00""]] }",Community Financial Services Center (CFSC)
244-223@62j-sjv-99f,42.373622999999995,-71.120675,Shoe Stores,"{ ""Mon"": [[""11:00"", ""19:00""]], ""Tue"": [[""11:00"", ""19:00""]], ""Wed"": [[""11:00"", ""19:00""]], ""Thu"": [[""11:00"", ""19:00""]], ""Fri"": [[""11:00"", ""19:00""]], ""Sat"": [[""11:00"", ""19:00""]], ""Sun"": [[""11:00"", ""18:00""]] }",Allbirds
24b-222@62j-sj2-x3q,42.372469,-71.089738,Lessors of Real Estate,,Apartments at 783 Cambridge St
256-222@62j-sj2-j7q,42.370898,-71.10904599999999,Lessors of Real Estate,,Apartments at 335 Harvard St
26c-222@62j-sjv-g8v,42.3647,-71.114094,Lessors of Real Estate,,Townhouses at 181 Putnam Ave
26n-222@62j-sj2-vmk,42.371653,-71.08351,Restaurants and Other Eating Places,"{ ""Mon"": [[""7:00"", ""14:00""]], ""Tue"": [[""7:00"", ""14:00""]], ""Wed"": [[""7:00"", ""14:00""]], ""Thu"": [[""7:00"", ""14:00""]], ""Fri"": [[""7:00"", ""14:00""]], ""Sat"": [[""8:00"", ""15:00""]], ""Sun"": [[""8:00"", ""15:00""]] }",Curio Coffee
27p-222@62j-sj2-jqf,42.368528999999995,-71.109575,"Office Supplies, Stationery, and Gift Stores",,Door Store
zzw-222@62j-sgg-jvz,42.357415,-71.10770500000001,Drycleaning and Laundry Services,"{ ""Mon"": [[""8:00"", ""21:00""]], ""Tue"": [[""8:00"", ""21:00""]], ""Wed"": [[""8:00"", ""21:00""]], ""Thu"": [[""8:00"", ""21:00""]], ""Fri"": [[""8:00"", ""21:00""]], ""Sat"": [[""8:00"", ""19:00""]], ""Sun"": [[""9:00"", ""19:00""]] }",Metropolitan Laundromat
zzw-222@62j-sj2-6ff,42.366523,-71.09579000000001,Child Day Care Services,,City Of Cambridge Dhsp Fletcher Maynard Sacc
zzw-222@62j-sjv-89z,42.374373,-71.116229,"Museums, Historical Sites, and Similar Institutions",,Harvard Yard
zzw-226@62j-sjv-835,42.374857,-71.118214,"Museums, Historical Sites, and Similar Institutions",,Harvard University Museums Of Natural History
zzw-22d@62j-sjv-8y9,42.370767,-71.11339699999999,Lessors of Real Estate,,Condos at 1105 Massachusetts Ave
223-222@62j-sj2-q9f,42.363349,-71.10978100000001,Lessors of Real Estate,,Condos at 168 River St
225-222@62j-sjv-fj9,42.365518,-71.113916,Lessors of Real Estate,,Apartments at 161 Putnam Ave
227-222@62j-sj2-ht9,42.371266,-71.110192,Lessors of Real Estate,,Condos at 351 Harvard St
22b-222@62j-sgg-g6k,42.356091,-71.110535,Lessors of Real Estate,,Apartments at 8 Rockingham St
22h-222@62j-sjv-g6k,42.36318,-71.110225,Lessors of Real Estate,,Apartments at 208 River St
22t-222@62j-sj2-kj9,42.374016,-71.10188199999999,Lessors of Real Estate,,Apartments at 1427 Cambridge St
22v-224@62j-sj3-9cq,42.374052,-71.10006899999999,Restaurants and Other Eating Places,,Ole to Go
22w-222@62j-sj2-6hq,42.367963,-71.098115,Lawn and Garden Equipment and Supplies Stores,"{ ""Mon"": [[""11:00"", ""20:00""]], ""Tue"": [], ""Wed"": [[""11:00"", ""20:00""]], ""Thu"": [[""11:00"", ""20:00""]], ""Fri"": [[""11:00"", ""20:00""]], ""Sat"": [[""10:00"", ""18:00""]], ""Sun"": [[""10:00"", ""18:00""]] }",Niche
23k-224@62j-sj2-x3q,42.372407,-71.089727,Personal Care Services,"{ ""Mon"": [], ""Tue"": [[""10:00"", ""18:00""]], ""Wed"": [[""10:00"", ""18:00""]], ""Thu"": [[""10:00"", ""18:00""]], ""Fri"": [[""10:00"", ""18:00""]], ""Sat"": [[""9:00"", ""19:00""]], ""Sun"": [] }",Brazilian Ipanema Hair Salon
23n-222@62j-sj2-kcq,42.37348,-71.105051,Lessors of Real Estate,,Apartments at 64 Highland Ave
23q-222@62j-sj2-j35,42.371021999999996,-71.112012,Lessors of Real Estate,,Apartments at 22 Trowbridge St
243-223@62j-sj3-9zz,42.379798,-71.094545,Restaurants and Other Eating Places,,Turenne
24j-224@62j-sj2-jjv,42.367943,-71.10739699999999,Lessors of Real Estate,,Apartments at 875 Massachusetts Ave
24s-222@62j-sj3-85f,42.373189,-71.09543000000001,Restaurants and Other Eating Places,"{ ""Mon"": [[""7:00"", ""17:00""]], ""Tue"": [[""7:00"", ""17:00""]], ""Wed"": [[""7:00"", ""17:00""]], ""Thu"": [[""7:00"", ""17:00""]], ""Fri"": [[""7:00"", ""17:00""]], ""Sat"": [[""7:00"", ""17:00""]], ""Sun"": [[""8:00"", ""17:00""]] }",M'Lor Caffe
24y-222@62j-sk3-3t9,42.380047999999995,-71.121367,Lessors of Real Estate,,Apartments at 9 Chauncy St
24z-222@62j-sgg-fzz,42.359103999999995,-71.11336800000001,Lessors of Real Estate,,Apartments at 244 Chestnut St
255-222@62j-sj2-wc5,42.373157,-71.09122099999999,Lessors of Real Estate,,Apartments at 13 Hunting St
25f-222@62j-sgg-j5f,42.360709,-71.110833,Lessors of Real Estate,,Condos at 40 Prince St
25k-222@62j-sj3-9j9,42.375228,-71.102124,Lessors of Real Estate,,Apartments at 23 Beacon St
264-222@62j-sjv-9zz,42.372318,-71.12156800000001,Personal Care Services,"{ ""Mon"": [[""10:30"", ""19:30""]], ""Tue"": [[""10:30"", ""19:30""]], ""Wed"": [[""10:30"", ""19:30""]], ""Thu"": [[""10:30"", ""19:30""]], ""Fri"": [[""10:30"", ""19:30""]], ""Sat"": [[""10:30"", ""19:30""]], ""Sun"": [[""12:00"", ""17:00""]] }",Harvard Eyebrow Threading
27h-222@62j-sj2-p35,42.364203,-71.102946,Offices of Real Estate Agents and Brokers,,Dennis Li Real Estate
2cr-222@62j-sj2-jjv,42.367915,-71.107399,Other Personal Services,,Rolfing Associates of Cambridge
zzw-222@62j-sjv-9zz,42.372402,-71.121486,Personal Care Services,,Charles Hotel
zzy-223@62j-sjv-fj9,42.366054999999996,-71.113998,Lessors of Real Estate,,Condos at 143 Putnam Ave
228-222@62j-sgg-ks5,42.361553,-71.113298,Lessors of Real Estate,,Apartments at 340 Putnam Ave
228-222@62j-sj2-6zf,42.372386999999996,-71.092199,Lessors of Real Estate,,Apartments at 116 Willow St
229-223@62j-sgg-gc5,42.355923,-71.112903,Elementary and Secondary Schools,,Morse
22f-222@62j-sj2-hyv,42.371827,-71.112654,Lessors of Real Estate,,Apartments at 379 Harvard St
22h-222@62j-sk2-qmk,42.376414000000004,-71.111038,Lessors of Real Estate,,Apartments at 39 Irving St
236-222@62j-sjv-c5z,42.375107,-71.112616,Lessors of Real Estate,,Apartments at 1716 Cambridge St
23k-222@62j-sj3-9mk,42.373744,-71.099941,"Sporting Goods, Hobby, and Musical Instrument Stores","{ ""Mon"": [[""11:00"", ""21:00""]], ""Tue"": [[""11:00"", ""21:00""]], ""Wed"": [[""11:00"", ""21:00""]], ""Thu"": [[""11:00"", ""21:00""]], ""Fri"": [[""11:00"", ""19:00""]], ""Sat"": [[""10:00"", ""19:00""]], ""Sun"": [[""11:00"", ""18:00""]] }",Gather Here
23x-222@62j-sk2-qcq,42.376829,-71.110353,Lessors of Real Estate,,Apartments at 48 Irving St
23y-222@62j-sj2-st9,42.367123,-71.107566,Lessors of Real Estate,,Apartments at 848 Massachusetts Ave
253-222@62j-sk2-s3q,42.378896000000005,-71.102326,Lessors of Real Estate,,Condos at 11 Parkdale St
258-222@62j-sj2-47q,42.369203000000006,-71.097041,Lessors of Real Estate,,Apartments at 55 Market St
262-222@62j-sj2-qxq,42.360338,-71.10713,Lessors of Real Estate,,Apartments at 174 Pearl St
zzw-222@62j-sj2-6hq,42.366964,-71.098246,Lessors of Real Estate,,Apartments at 202 Harvard St
zzy-223@62j-sj2-s89,42.363392,-71.101431,Building Equipment Contractors,,Cambridgeport 24 Hour Plumber
224-222@62j-sjv-cdv,42.373204,-71.113651,Lessors of Real Estate,,Harvard University Housing
22c-222@62j-sj2-gzf,42.372911,-71.10606899999999,Lessors of Real Estate,,Apartments at 39 Highland Ave
22c-223@62j-sjv-9fz,42.373925,-71.123035,Offices of Other Health Practitioners,"{ ""Mon"": [[""7:30"", ""19:00""]], ""Tue"": [[""7:30"", ""19:00""]], ""Wed"": [[""7:30"", ""19:00""]], ""Thu"": [[""7:30"", ""19:00""]], ""Fri"": [[""7:30"", ""17:00""]], ""Sat"": [], ""Sun"": [] }",Harvard Square Chiropractic
22n-222@62j-sj2-7qz,42.368621000000005,-71.08994200000001,Child Day Care Services,"{ ""Mon"": [[""7:30"", ""17:30""]], ""Tue"": [[""7:30"", ""17:30""]], ""Wed"": [[""7:30"", ""17:30""]], ""Thu"": [[""7:30"", ""17:30""]], ""Fri"": [[""7:30"", ""17:30""]], ""Sat"": [], ""Sun"": [] }",Bright Horizons
22s-222@62j-sj2-rzf,42.363931,-71.099469,Lessors of Real Estate,,Apartments at 20 Columbia St
22z-222@62j-sj3-8qf,42.376788,-71.10199300000001,Lessors of Real Estate,,Apartments at 19 Harold St
22z-223@62j-sjv-975,42.374243,-71.121422,Other Miscellaneous Store Retailers,,City Smoke Shop Harvard
23f-222@62j-sj2-68v,42.365926,-71.098952,Lessors of Real Estate,,Apartments at 8 Suffolk St
23v-222@62j-sj2-8gk,42.372833,-71.098324,Lessors of Real Estate,,Apartments at 310 Prospect St
246-222@62j-sj2-6x5,42.370591999999995,-71.09389200000001,Lessors of Real Estate,,Apartments at 394 Windsor St
24m-222@62j-sj2-7bk,42.368707,-71.091296,Lessors of Real Estate,,Apartments at 15 Plymouth St
24t-224@62j-sj2-4jv,42.369882000000004,-71.095936,Lessors of Real Estate,,Apartments at 115 Hampshire St
24x-222@62j-sgg-j9z,42.361313,-71.113155,Lessors of Real Estate,,Apartments at 344 Putnam Ave
258-222@62j-sj3-9s5,42.373812,-71.098029,Lessors of Real Estate,,Apartments at 359 Prospect St
265-222@62j-sj3-8vz,42.376922,-71.10432,Lessors of Real Estate,,Condos at 66 Dimick St
26n-223@62j-sjv-8jv,42.371804,-71.115459,Lessors of Real Estate,,Apartments at 1210 Massachusetts Ave
22w-222@62j-sj2-6p9,42.371758,-71.09307199999999,Lessors of Real Estate,,Apartments at 22 Palermo St
22z-223@62j-sj2-cnq,42.358308,-71.09355699999999,Religious Organizations,,Evangelical Lutheran Church In America
23m-222@62j-sj2-6zf,42.372376,-71.092113,Lessors of Real Estate,,110 Willow Street
23q-224@62j-sj2-mrk,42.375336,-71.10699699999999,Individual and Family Services,,Spaulding National Running Center
23s-222@62j-sk2-p35,42.376818,-71.106054,Lessors of Real Estate,,Apartments at 60 Magnolia Ave
242-222@62j-sj2-gp9,42.372085999999996,-71.107365,Lessors of Real Estate,,Apartments at 399 Broadway
zzw-225@62j-sj2-5zz,42.365922,-71.098166,Lessors of Real Estate,,Apartments at 7 Marvin Plz
zzw-22b@62j-sjv-9mk,42.374235999999996,-71.119282,Clothing Stores,"{ ""Mon"": [[""10:00"", ""19:00""]], ""Tue"": [[""10:00"", ""19:00""]], ""Wed"": [[""10:00"", ""19:00""]], ""Thu"": [[""10:00"", ""19:00""]], ""Fri"": [[""10:00"", ""19:00""]], ""Sat"": [[""10:00"", ""19:00""]], ""Sun"": [[""11:00"", ""18:00""]] }",Mint Julep
222-222@62j-sj3-89z,42.374116,-71.096734,Lessors of Real Estate,,Apartments at 147 Tremont St
224-222@62j-sgg-ks5,42.362302,-71.11397,Lessors of Real Estate,,Condos at 325 River St
22c-222@62j-sj2-sdv,42.363515,-71.098677,Lessors of Real Estate,,Apartments at 8 Bishop Allen Dr
22h-222@62j-sk2-rx5,42.378671999999995,-71.105482,Lessors of Real Estate,,Apartments at 393 Washington St
22n-222@62j-sj2-6p9,42.371663,-71.092549,Lessors of Real Estate,,Apartments at 72 Willow St
23v-222@62j-sk3-435,42.379256,-71.123153,Lessors of Real Estate,,Apartments at 18 Chauncy St
23y-222@62j-sj3-9zz,42.380028,-71.09435500000001,Drinking Places (Alcoholic Beverages),"{ ""Mon"": [], ""Tue"": [[""17:00"", ""22:00""]], ""Wed"": [[""17:00"", ""22:00""]], ""Thu"": [[""17:00"", ""22:00""]], ""Fri"": [[""17:00"", ""22:30""]], ""Sat"": [[""17:00"", ""22:30""]], ""Sun"": [] }",Field & Vine
24t-222@62j-sjv-hqz,42.368939000000005,-71.113699,Lessors of Real Estate,,Condos at 33 Putnam Ave
24z-222@62j-sjv-975,42.374245,-71.12123000000001,"Sporting Goods, Hobby, and Musical Instrument Stores","{ ""Mon"": [[""10:00"", ""18:00""]], ""Tue"": [[""10:00"", ""18:00""]], ""Wed"": [[""10:00"", ""18:00""]], ""Thu"": [[""10:00"", ""18:00""]], ""Fri"": [[""10:00"", ""18:00""]], ""Sat"": [[""10:00"", ""18:00""]], ""Sun"": [[""12:00"", ""18:00""]] }",Cambridge Artists Cooperative
254-223@62j-sjv-jgk,42.365702,-71.110236,Lessors of Real Estate,,Apartments at 41 Jay St
27j-222@62j-sj2-qs5,42.360224,-71.106408,Lessors of Real Estate,,Condos at 19 Speridakis Terrace
28n-222@62j-sj2-jqf,42.368513,-71.11014899999999,Lessors of Real Estate,,Apartments at 4 Belvidere Pl
zzw-223@62j-sgg-6zf,42.35787,-71.104607,Management of Companies and Enterprises,,AbbVie
zzw-227@62j-sjv-835,42.374873,-71.118216,"Colleges, Universities, and Professional Schools",,Harvard Undergraduate Council
zzy-225@62j-sj2-p35,42.364159,-71.102982,Other Personal Services,,Green Street Franklin Street Garage
222-223@62j-sj2-v2k,42.373082000000004,-71.085373,Personal Care Services,,Cambridge Health Alliance
22k-223@62j-sjv-bc5,42.37276,-71.119697,Other Schools and Instruction,,Magica Italia
22m-224@62j-sj2-rc5,42.36683,-71.102338,Outpatient Care Centers,,Mass General Brigham Urgent Care
22p-222@62j-sj3-bzf,42.378019,-71.091911,Automotive Repair and Maintenance,"{ ""Mon"": [[""8:00"", ""17:00""]], ""Tue"": [[""8:00"", ""17:00""]], ""Wed"": [[""8:00"", ""17:00""]], ""Thu"": [[""8:00"", ""17:00""]], ""Fri"": [[""8:00"", ""17:00""]], ""Sat"": [[""8:00"", ""14:00""]], ""Sun"": [] }",Carneiro Auto Body
22r-222@62j-sjv-g8v,42.364309000000006,-71.113506,Lessors of Real Estate,,Condos at 330 Western Ave
22v-222@62j-sj3-9fz,42.373265,-71.098853,Lessors of Real Estate,,Apartments at 1298 Cambridge St
22z-222@62j-sj2-5fz,42.367635,-71.098091,Lessors of Real Estate,,Apartments at 217 Harvard St
236-223@62j-sj2-j35,42.371179999999995,-71.11263199999999,Lessors of Real Estate,,Apartments at 374 Harvard St
23m-222@62j-sjv-mzf,42.374174,-71.125736,Offices of Other Health Practitioners,"{ ""Mon"": [[""8:30"", ""20:30""]], ""Tue"": [[""8:30"", ""20:30""]], ""Wed"": [[""8:30"", ""20:30""]], ""Thu"": [[""8:30"", ""20:30""]], ""Fri"": [[""8:30"", ""20:30""]], ""Sat"": [[""9:00"", ""18:00""]], ""Sun"": [[""9:00"", ""18:00""]] }",Simple Life Training
248-222@62j-sj2-jjv,42.367736,-71.108153,Lessors of Real Estate,,Apartments at 888 Massachusetts Ave
258-222@62j-sj2-st9,42.367105,-71.107596,Lessors of Real Estate,,Apartments at 856 Massachusetts Ave
264-222@62j-sj8-q4v,42.379356,-71.091862,Grocery Stores,,Lucky Corner
zzw-223@62j-sjv-99f,42.373307000000004,-71.121985,Offices of Real Estate Agents and Brokers,,Regus Massachusetts Harvard Square Mifflin Place
223-222@62j-sj2-7h5,42.369191,-71.092624,Grocery Stores,,G & J Variety
223-223@62j-sj2-c3q,42.361802000000004,-71.097962,Gasoline Stations,"{ ""Mon"": [[""0:00"", ""24:00""]], ""Tue"": [[""0:00"", ""24:00""]], ""Wed"": [[""0:00"", ""24:00""]], ""Thu"": [[""0:00"", ""24:00""]], ""Fri"": [[""0:00"", ""24:00""]], ""Sat"": [[""0:00"", ""24:00""]], ""Sun"": [[""0:00"", ""24:00""]] }",Sunoco
224-222@62j-sjv-mrk,42.376925,-71.126363,"Museums, Historical Sites, and Similar Institutions","{ ""Mon"": [], ""Tue"": [], ""Wed"": [[""9:30"", ""17:00""]], ""Thu"": [[""9:30"", ""17:00""]], ""Fri"": [[""9:30"", ""17:00""]], ""Sat"": [[""9:30"", ""17:00""]], ""Sun"": [[""9:30"", ""17:00""]] }",Longfellow House Washington's Headquarters
226-222@62j-sj2-mhq,42.373262,-71.108193,Lessors of Real Estate,,Apartments at 65 Dana St
22n-222@62j-sj3-9fz,42.373057,-71.09959,Lessors of Real Estate,,Apartments at 193 Hampshire St
22q-222@62j-sj3-52k,42.368045,-71.08312099999999,Lessors of Real Estate,,Apartments at 173 Charles St
22r-223@62j-sj2-6hq,42.367971999999995,-71.097868,Beverage Manufacturing,"{ ""Mon"": [[""11:00"", ""22:00""]], ""Tue"": [[""11:00"", ""24:00""]], ""Wed"": [[""11:00"", ""24:00""]], ""Thu"": [[""11:00"", ""24:00""]], ""Fri"": [[""11:00"", ""24:00""]], ""Sat"": [[""11:00"", ""24:00""]], ""Sun"": [[""11:00"", ""22:00""]] }",Lamplighter Brewing Co
22w-222@62j-sj8-py9,42.378883,-71.090202,Lessors of Real Estate,,Apartments at 35 Mansfield St
234-222@62j-sj2-7t9,42.370290999999995,-71.09066999999999,Lessors of Real Estate,,Apartments at 78 Berkshire St
24h-223@62j-sjv-f75,42.365555,-71.1144,Lessors of Real Estate,,Apartments at 7 Elmer St
255-222@62j-sjv-9zz,42.372467,-71.120859,Drinking Places (Alcoholic Beverages),"{ ""Mon"": [], ""Tue"": [[""17:30"", ""22:00""]], ""Wed"": [[""17:30"", ""22:00""]], ""Thu"": [[""17:30"", ""22:00""]], ""Fri"": [[""17:30"", ""22:30""]], ""Sat"": [[""17:30"", ""22:30""]], ""Sun"": [] }",Parsnip Restaurant & Lounge
257-222@62j-sk3-435,42.379438,-71.122385,Lessors of Real Estate,,Apartments at 16 Chauncy St
258-222@62j-sj2-qpv,42.361261999999996,-71.106643,Other Schools and Instruction,,Top Nanny
25s-222@62j-sjv-j35,42.369683,-71.111584,Other Miscellaneous Store Retailers,"{ ""Mon"": [[""12:00"", ""20:00""]], ""Tue"": [[""12:00"", ""20:00""]], ""Wed"": [[""12:00"", ""20:00""]], ""Thu"": [[""12:00"", ""20:00""]], ""Fri"": [[""12:00"", ""20:00""]], ""Sat"": [[""12:00"", ""20:00""]], ""Sun"": [] }",Hubba Hubba
267-222@62j-sj3-4y9,42.369658,-71.08372299999999,Lessors of Real Estate,,Townhouses at 113 5th St
zzw-222@62j-sj2-j35,42.371503999999995,-71.11150699999999,Lessors of Real Estate,,Apartments at 367 Harvard St
zzw-222@62j-sj2-kzz,42.37096,-71.103858,Child Day Care Services,,King Open Preschool
225-226@62j-sjv-bx5,42.376467,-71.113496,Religious Organizations,,Anglican Church Of The Epiphany Boston
226-222@62j-sk2-rrk,42.378417999999996,-71.103939,Lessors of Real Estate,,Apartments at 8 Calvin St
229-223@62j-sjv-99f,42.373604,-71.121429,Motion Picture and Video Industries,"{ ""Mon"": [[""16:30"", ""22:00""]], ""Tue"": [[""16:30"", ""22:00""]], ""Wed"": [[""16:30"", ""22:00""]], ""Thu"": [[""16:30"", ""22:00""]], ""Fri"": [[""16:30"", ""22:00""]], ""Sat"": [[""12:30"", ""22:00""]], ""Sun"": [[""12:30"", ""22:00""]] }",The Brattle Theatre
22c-222@62j-sgg-ks5,42.362190999999996,-71.114166,Lessors of Real Estate,,Apartments at 3 Blackstone St
22x-222@62j-sgg-789,42.357622,-71.10544,Lessors of Real Estate,,Condos at 202 Sidney St
22z-222@62j-sj3-9s5,42.374328999999996,-71.098416,Lessors of Real Estate,,Condos at 19 Clary St
237-222@62j-sk2-pd9,42.377297999999996,-71.104867,Restaurants and Other Eating Places,,Thai Hut
23q-223@62j-sj3-9fz,42.373625,-71.098784,Drinking Places (Alcoholic Beverages),,Drifter's Tale Tavern
23v-222@62j-sj2-q9f,42.362792999999996,-71.109386,Lessors of Real Estate,,Apartments at 66 Pleasant St
24x-222@62j-sj2-qzz,42.361806,-71.104913,Lessors of Real Estate,,Apartments at 35 Lopez St
25k-223@62j-sjv-j5f,42.369028,-71.111465,Offices of Real Estate Agents and Brokers,,Sarah Rodewald Gibson Sotheby's Realty
25w-222@62j-sj2-jjv,42.368192,-71.108776,Personal Care Services,"{ ""Mon"": [[""8:00"", ""20:00""]], ""Tue"": [[""8:00"", ""20:00""]], ""Wed"": [[""8:00"", ""20:00""]], ""Thu"": [[""8:00"", ""20:00""]], ""Fri"": [[""8:00"", ""20:00""]], ""Sat"": [[""8:00"", ""18:00""]], ""Sun"": [[""9:00"", ""16:00""]] }",Temple of Groom
25w-224@62j-sj2-jjv,42.368179999999995,-71.108763,Lessors of Real Estate,,Apartments at 908 Massachusetts Ave
26c-222@62j-sj3-6hq,42.36871,-71.084712,Lessors of Real Estate,,Condos at 326 Hurley St
26q-222@62j-sjv-8n5,42.370911,-71.114891,Offices of Other Health Practitioners,"{ ""Mon"": [[""9:00"", ""19:00""]], ""Tue"": [[""9:00"", ""19:00""]], ""Wed"": [[""9:00"", ""19:00""]], ""Thu"": [[""9:00"", ""19:00""]], ""Fri"": [[""9:00"", ""19:00""]], ""Sat"": [[""9:00"", ""17:00""]], ""Sun"": [[""9:00"", ""17:00""]] }",Harvard Square Acupuncture and Massage
273-222@62j-sj2-m6k,42.371609,-71.099928,Automotive Repair and Maintenance,"{ ""Mon"": [[""7:30"", ""18:00""]], ""Tue"": [[""7:30"", ""18:00""]], ""Wed"": [[""7:30"", ""18:00""]], ""Thu"": [[""7:30"", ""18:00""]], ""Fri"": [[""7:30"", ""18:00""]], ""Sat"": [], ""Sun"": [] }",Foreign Auto Center
zzw-222@62j-sj2-rff,42.365010999999996,-71.10240300000001,Restaurants and Other Eating Places,,Diva Indian Bistro
zzy-222@62j-sjt-mkz,42.370199,-71.120137,Religious Organizations,,Sadguru Nityananda Institute Inc
223-222@62j-sj2-ffz,42.363395000000004,-71.096884,Restaurants and Other Eating Places,"{ ""Mon"": [[""11:00"", ""22:00""]], ""Tue"": [[""11:00"", ""22:00""]], ""Wed"": [[""11:00"", ""22:00""]], ""Thu"": [[""11:00"", ""22:00""]], ""Fri"": [[""11:00"", ""23:00""]], ""Sat"": [[""11:00"", ""23:00""]], ""Sun"": [[""12:00"", ""21:00""]] }",Primo Pizza & Roast Beef
226-222@62j-sj3-c5z,42.377925,-71.09334,Lessors of Real Estate,,Apartments at 21 Allen St
228-222@62j-sk2-qfz,42.376471,-71.110514,Lessors of Real Estate,,Apartments at 40 Irving St
228-224@62j-sjv-9zz,42.372004,-71.120343,Restaurants and Other Eating Places,,Nine Tastes
229-222@62j-sj3-3qz,42.365565000000004,-71.090073,Personal Care Services,"{ ""Mon"": [], ""Tue"": [[""6:30"", ""21:30""]], ""Wed"": [[""6:30"", ""21:30""]], ""Thu"": [[""6:30"", ""21:30""]], ""Fri"": [[""6:30"", ""19:30""]], ""Sat"": [[""7:30"", ""19:00""]], ""Sun"": [[""8:00"", ""18:00""]] }",Jimi James Expert Hair Colorist
22b-223@62j-sj2-85f,42.372251,-71.09938000000001,Grocery Stores,,7-Eleven
22k-222@62j-sj2-sbk,42.364554999999996,-71.099005,Lessors of Real Estate,,Apartments at 44 Columbia St
22y-222@62j-sj3-b6k,42.379957,-71.09620699999999,Other Schools and Instruction,"{ ""Mon"": [[""16:00"", ""20:00""]], ""Tue"": [[""16:00"", ""20:00""]], ""Wed"": [[""16:00"", ""20:00""]], ""Thu"": [[""16:00"", ""20:00""]], ""Fri"": [[""16:00"", ""20:00""]], ""Sat"": [[""9:00"", ""20:00""]], ""Sun"": [] }",Villari's Martial Arts Center
232-223@62j-sj3-33q,42.36282,-71.083927,Wired and Wireless Telecommunications Carriers,,First Line Software
233-222@62j-sj2-vvf,42.370776,-71.084814,Death Care Services,,Donovan Aufiero Funeral Home
23f-222@62j-sj2-7dv,42.368021999999996,-71.091192,Lessors of Real Estate,,Apartments at 3 Berkshire Pl
23k-224@62j-sgg-j7q,42.35988,-71.10998000000001,Restaurants and Other Eating Places,,Cafe Spice MIT
23q-222@62j-sj2-435,42.36887,-71.095127,Grocery Stores,"{ ""Mon"": [[""9:00"", ""19:00""]], ""Tue"": [[""9:00"", ""19:00""]], ""Wed"": [[""9:00"", ""19:00""]], ""Thu"": [[""9:00"", ""19:00""]], ""Fri"": [[""9:00"", ""19:00""]], ""Sat"": [[""9:00"", ""18:00""]], ""Sun"": [[""10:00"", ""16:00""]] }",Formaggio Kendall
23z-222@62j-sj2-j35,42.370794000000004,-71.112137,Lessors of Real Estate,,Apartments at 16 Trowbridge St
247-223@62j-sj3-9s5,42.373594,-71.098303,Lessors of Real Estate,,Apartments at 1245 Cambridge St
24g-222@62j-sjv-99f,42.373518,-71.12155600000001,Drinking Places (Alcoholic Beverages),"{ ""Mon"": [[""0:00"", ""1:00""], [""11:30"", ""24:00""]], ""Tue"": [[""0:00"", ""1:00""], [""11:30"", ""24:00""]], ""Wed"": [[""0:00"", ""1:00""], [""11:30"", ""24:00""]], ""Thu"": [[""0:00"", ""1:00""], [""11:30"", ""24:00""]], ""Fri"": [[""0:00"", ""2:00""], [""11:30"", ""24:00""]], ""Sat"": [[""0:00"", ""2:00""], [""16:00"", ""24:00""]], ""Sun"": [[""0:00"", ""2:00""], [""16:00"", ""24:00""]] }",The Longfellow Bar
24s-222@62j-sj2-x3q,42.372389,-71.08957099999999,Lessors of Real Estate,,Apartments at 775 Cambridge St
253-222@62j-sj2-j7q,42.371371999999994,-71.108987,Lessors of Real Estate,,Apartments at 34 Chatham St
