id,amenity,name,lat,lon,capacity
69504598,bus_station,Harvard Square,42.3733695,-71.1189903,
182894406,research_institute,Picower Institute for Learning and Memory (MIT),42.3623061,-71.0912936,
182895807,research_institute,McGovern Institute for Brain Research (MIT),42.3626295,-71.0914481,
257493789,police,Cambridge Police Dept,42.3749188,-71.1144991,
257493900,police,Cambridge Police Department,42.3672754,-71.0861518,
257493974,police,Harvard University Police,42.3787447,-71.123779,
257494617,fire_station,Somerville Fire Department,42.3789022,-71.0925588,
257535986,library,Cambridge Hospital Bor Medical Library,42.374487,-71.1042697,
257536184,library,Cmes Teaching Resource Center,42.3755807,-71.1139584,
257536781,library,Bakalar Music Library,42.3787529,-71.1233952,
257537277,library,Regional Center For Healthy Communities,42.3644143,-71.1025321,
257578529,school,Community Charter School of Cambridge,42.3679174,-71.0846841,
257580793,school,Castle School Inc,42.369517,-71.1057346,
313409064,atm,,42.3596925,-71.0917204,
317333141,ice_cream,Toscanini's,42.3635462,-71.0994275,
345825149,post_box,United States Postal Service,42.3793849,-71.100909,
346380369,bank,Cambridge Savings Bank,42.3651922,-71.1038304,
358260272,place_of_worship,First Church Congregational,42.3781524,-71.1208861,
358276855,place_of_worship,Church of God of Prophecy,42.3667638,-71.0967187,
358276915,place_of_worship,First Church of Christ Scientist,42.3784301,-71.1208861,
358276974,school,Harvard University Divinity School,42.3797311,-71.1130415,
358276976,university,Harvard Business School,42.3662761,-71.1220041,
358276992,place_of_worship,Immaculate Conception Lithuanian Church,42.371486,-71.0936632,
358277009,university,John F Kennedy School of Government,42.3715439,-71.122104,
358277036,college,Longy School of Music of Bard College,42.3784429,-71.1233492,
358277050,place_of_worship,Massachusetts Avenue Baptist Church,42.3709399,-71.0977808,
358277108,school,Old Cambridge Baptist Church School,42.371748,-71.1141841,
358277135,place_of_worship,Portuguese Baptist Church,42.3723192,-71.1011634,
358277153,place_of_worship,Sacred Heart Church,42.3709304,-71.0850518,
358277155,place_of_worship,Sacred Heart of Jesus Catholic Church,42.3709304,-71.0853295,
358277224,school,St. Paul’s Choir School,42.3712797,-71.1157169,
358277231,place_of_worship,Santo Cristo Center,42.3734303,-71.0975522,
358277268,place_of_worship,Transcendental Meditation Center,42.3792635,-71.123664,
358278022,post_office,Inman Square Post Office,42.3736636,-71.0995669,
364705609,post_box,,42.3717459,-71.1068642,
365602150,atm,,42.359031,-71.0944639,
366686158,post_box,,42.3701042,-71.1032843,
367777760,arts_centre,List Visual Arts Center,42.3610207,-71.0877409,
367777763,arts_centre,Community Art Center,42.368986,-71.0906075,
367777946,library,Eda Kuhn Loeb Music Library,42.376964,-71.1170152,
367777951,library,McKay and Blue Hill Library,42.3780016,-71.1170381,
367778000,library,Youville Hospital School of Practical Nursing Library,42.3746771,-71.1066974,
367778007,library,Tozzer Library,42.3785688,-71.1148047,
367778046,library,Frances Loeb Library,42.3759405,-71.1139182,
367778049,library,Godfrey Lowell Cabot Science Library,42.3761636,-71.1163126,
367778059,library,Physics Research Library,42.377305,-71.1172917,
367778060,library,Harvard University Psychology Research Library,42.3771216,-71.1135784,
367778065,library,Gutman Library,42.3749185,-71.1217096,
367778068,library,Harvard University Fine Arts Library,42.3763632,-71.1182075,
367778069,library,Harvard Law School Library,42.3779559,-71.1185838,
367778071,library,Kummel Library of Geological Sciences,42.3782011,-71.1147103,
367778076,library,Harvard Kennedy School Library,42.3711732,-71.1216494,
367778080,library,Pusey Library,42.3737167,-71.1157815,
367779222,library,William Howard Taft Middle School Library,42.352203,-71.1206362,
367779474,theatre,Sanders Theatre,42.3758873,-71.1146858,
367781121,library,Harvard University Museum of Comparative Zoology Library,42.3785878,-71.1155943,
371247606,library,Eliot House Library,42.3700745,-71.1219298,
380888986,telephone,,42.3685047,-71.0991917,
380889116,post_box,,42.3684286,-71.0991316,
417050044,magazine_box,,42.3652431,-71.1036222,
417050049,magazine_box,,42.3651291,-71.1033941,
417050052,post_box,,42.3650571,-71.103328,
417050056,magazine_box,,42.3647381,-71.1027907,
417050065,post_box,,42.3645855,-71.1025395,
417050073,recycling,,42.3629703,-71.0998573,
417050075,bench,,42.3628315,-71.099977,
417050082,post_box,,42.3628369,-71.0998704,
417080191,cafe,Andala Coffee House,42.3647658,-71.105778,
417107209,post_box,,42.3615995,-71.097483,
417107215,post_box,,42.3599831,-71.0948132,
441287631,bicycle_parking,LiveableStreets,42.359887,-71.1029331,10
441291604,cafe,Pacific Street Cafe,42.3602168,-71.102461,
441292040,pub,The Asgard,42.3627042,-71.0995636,
448110162,cafe,Darwin's Limited,42.3749452,-71.1094225,
480692709,ice_cream,J. P. Licks,42.3728601,-71.1174909,
500678894,restaurant,El Potro,42.3798083,-71.0954807,
500678986,fast_food,Mama Gina's,42.3795293,-71.0962575,
500792310,pub,The Druid,42.3737379,-71.1001428,
500792317,restaurant,All-Star Sandwich Bar,42.3734743,-71.0981901,
500792348,pharmacy,Inman Pharmacy,42.3737001,-71.101469,
500792356,restaurant,S&S Restaurant,42.3734808,-71.0998028,
505869274,parking_entrance,,42.3739663,-71.1113252,
505869282,parking,,42.3737921,-71.1112861,
539998402,pub,Miracle of Science Bar + Grill,42.3625591,-71.0985916,
539998403,nightclub,Middlesex Lounge,42.3624977,-71.0984964,
540404766,restaurant,Bytes,42.3609802,-71.1009966,
541316313,ice_cream,New City Microcreamery,42.3635902,-71.1000483,
541316331,restaurant,Desi Dhaba,42.3635803,-71.0999357,
559506931,car_sharing,,42.3800832,-71.0955128,3
564529877,taxi,,42.3625821,-71.1000741,
564531110,cafe,Mariposa Bakery,42.3633623,-71.1006465,
564536086,restaurant,Rangzen,42.3641739,-71.1030009,
564536105,restaurant,Pepper Sky's,42.3642246,-71.1029409,
566889950,fast_food,Cambridge Pizzeria,42.3576804,-71.1078846,
566890089,fast_food,Dimitrios,42.357395,-71.1077988,
572609876,restaurant,Mary Chung,42.3636932,-71.101199,
575423879,restaurant,The Royal East,42.3630748,-71.0968465,
581466119,restaurant,Koreana,42.3691324,-71.1009413,
582805044,restaurant,Sydney's Grille,42.3621013,-71.1002506,
585463485,theatre,American Repertory Theater,42.3748602,-71.1229496,
595507840,bicycle_parking,,42.3738137,-71.1107632,32
616945448,restaurant,Thai Hut,42.377249,-71.1049217,
617230464,post_box,,42.3762327,-71.103742,
617230466,bank,Cambridge Savings Bank,42.3735442,-71.1003822,
617230467,atm,,42.3735739,-71.1004573,
617230469,post_box,,42.3735621,-71.1005002,
617230474,post_box,United States Postal Service,42.379543,-71.0965463,
617249818,restaurant,Dali,42.3783568,-71.1067196,
617249820,restaurant,Kebab Factory,42.3780743,-71.1065873,
617249823,post_box,,42.3781587,-71.1060815,
625076599,car_sharing,,42.3689763,-71.103462,1
628854831,car_sharing,,42.3767388,-71.1047465,2
628907786,restaurant,Aleppo Palace,42.3654052,-71.104651,
631327326,post_box,,42.3712312,-71.1108269,
631342001,recycling,,42.3749116,-71.1104569,
684628427,car_sharing,,42.3658591,-71.1061857,3
684815608,fountain,,42.3709799,-71.1231618,
871143661,pub,Cambridge Brewing Company,42.3664143,-71.0913087,
931018646,drinking_water,,42.3533619,-71.1075777,
931018661,drinking_water,,42.3773566,-71.1214654,
945806798,parking,Kendall Square Parking,42.363594,-71.082798,
981441735,taxi,,42.365026,-71.1030207,
981484250,bar,Cantab Lounge,42.366126,-71.1052914,
981515406,theatre,Central Square Theater,42.3634608,-71.1011374,
981577061,bicycle_parking,,42.3620993,-71.0887346,34
981577094,bicycle_parking,,42.3621426,-71.0897568,16
981594738,bicycle_parking,,42.3609185,-71.0841526,38
981594740,bicycle_parking,,42.3607247,-71.0831945,9
981605650,bank,Eastern Bank,42.362619,-71.0838826,
983925522,restaurant,India Pavilion,42.3654032,-71.1047721,
984957223,cafe,1369 Coffee House,42.3665431,-71.1053039,
986060048,post_box,,42.3712624,-71.0937204,
986189340,pub,Flat Top Johnny's,42.3665592,-71.0905496,
986189375,cafe,Bean Towne Coffee House,42.3664118,-71.0906362,
986189388,restaurant,The Blue Room,42.3664458,-71.0907953,
986669786,bicycle_parking,,42.3662294,-71.090364,
986669853,bicycle_parking,,42.3659584,-71.0907093,
986669855,bicycle_parking,,42.3668725,-71.0897674,
986669858,bicycle_parking,,42.3642971,-71.0883919,6
986669861,bicycle_parking,,42.3670197,-71.0896772,
993148082,recycling,,42.3721534,-71.0965332,
1000125740,restaurant,,42.363423,-71.0831628,
1000129098,restaurant,Za Restaurant,42.3634943,-71.0834658,
1027662912,drinking_water,,42.3793938,-71.1033899,
1027662918,bench,,42.3797435,-71.1036883,
1032773615,atm,Bank of America,42.3781546,-71.1064248,
1034918615,atm,,42.374263,-71.1012631,
1034918636,restaurant,Moona,42.3741265,-71.101103,
1034918654,atm,Bank of America,42.373662,-71.1011578,
1036546966,bench,,42.3784429,-71.1064198,
1036547335,bench,,42.3784338,-71.1061101,
1036547616,bench,,42.3783802,-71.1066429,
1096311852,bicycle_parking,,42.3761421,-71.1161019,100
1097147099,bench,,42.3765573,-71.1202423,
1097147109,bench,,42.3765388,-71.1201982,
1097147119,bench,,42.376313,-71.1200732,
1097147122,bench,,42.3762773,-71.120088,
1097147143,bench,,42.3762444,-71.1201076,
1230178098,parking_entrance,,42.363326,-71.0889883,
1317730166,bar,Drifter's Tale,42.3735622,-71.0987964,
1412610544,restaurant,Batifol: Brasserie Parisienne,42.3646081,-71.0831708,
1413993833,restaurant,The Mad Monkfish,42.3641718,-71.1020228,
1436307484,restaurant;bicycle_parking,Punjabi Dhaba,42.3738746,-71.1007933,6
1437162941,cafe,1369 Coffee House,42.3737722,-71.1003885,
1447593250,restaurant,Veggie Galaxy,42.3636635,-71.1011293,
1456426025,restaurant,West Campus Dining Hall,42.3525797,-71.1198091,
1456844116,restaurant,Loose Leafs,42.3522669,-71.1157486,
1469359647,restaurant,City Girl Cafe,42.3731225,-71.1003126,
1469359667,pub,Atwood's Tavern,42.3726221,-71.0915662,
1469359693,restaurant,Ole,42.3740824,-71.1003261,
1469359700,restaurant,Corazon de Frida Mexican Cantina,42.3735802,-71.0989422,
1469359723,restaurant,Atasca,42.366671,-71.092552,
1469386655,restaurant,Champion's Sports Bar,42.3627551,-71.0855928,
1602692247,pub,Lord Hobo,42.3687167,-71.0949244,
1602700481,restaurant,Green Street Grill,42.3646118,-71.104116,
1666785493,pub,Phoenix Landing,42.3640906,-71.1018806,
1706530057,parking,Ensemble Therapeutics,42.359065,-71.1053361,
1708499129,fuel,Shell,42.3729551,-71.0935352,
1708499161,bench,,42.372163,-71.0881311,
1710142648,bank,MIT Federal Credit Union,42.3639623,-71.0929019,
1710149780,atm,,42.3617744,-71.0902948,
1728538809,restaurant,The Middle East Upstairs,42.3637705,-71.1013224,
1728540649,nightclub,The Middle East Downstairs,42.3637328,-71.1015015,
1749306041,restaurant,Area Four,42.3631405,-71.0924347,
1761141341,restaurant,Bertucci's,42.3633701,-71.0972819,
1764784293,money_transfer,Western Union,42.3795435,-71.0958221,
1787527383,bicycle_parking,,42.3735752,-71.1098988,6
1787657745,bicycle_parking,,42.3737638,-71.1120579,6
1787657748,bicycle_parking,,42.3738708,-71.1123207,2
1790790263,bicycle_parking,,42.3751139,-71.1120002,8
1790793436,bicycle_parking,,42.3730067,-71.1188553,9
1790793437,bicycle_parking,,42.3724416,-71.1191888,36
1795160492,bicycle_parking,,42.3731543,-71.1187281,6
1795164349,bicycle_parking,,42.3723925,-71.1198601,6
1816988564,cafe,Bauer Cafe,42.3775378,-71.1153803,
1817004846,bicycle_parking,,42.3748078,-71.1179678,15
1823601081,bicycle_parking,,42.3784018,-71.1061696,2
1829147978,bicycle_parking,,42.3730617,-71.1001417,2
1829147981,bicycle_parking,,42.3730894,-71.1001752,2
1829147984,bicycle_parking,,42.373138,-71.1002315,2
1829152321,bicycle_parking,,42.3732896,-71.1001779,2
1829152322,bicycle_parking,,42.3726277,-71.0993625,2
1829169557,bicycle_parking,,42.3744549,-71.1015939,2
1831283671,bicycle_parking,,42.376454,-71.1042658,2
1831292626,bicycle_parking,,42.3733055,-71.1005938,2
1831294143,bicycle_parking,,42.3714646,-71.1008017,2
1831299908,bicycle_parking,,42.3730915,-71.0999139,2
1831303855,bicycle_parking,,42.3737929,-71.1007977,4
1831311054,bicycle_parking,,42.3757794,-71.1031889,2
1831314526,bicycle_parking,,42.3780976,-71.106264,2
1831316023,bicycle_parking,,42.3781709,-71.1066355,2
1831319650,bicycle_parking,,42.3782809,-71.1067133,2
1831320518,bicycle_parking,,42.3781699,-71.1072055,2
1831371548,bicycle_parking,,42.3749671,-71.1024743,2
1831393836,ice_cream,Christina's Homemade Ice Cream,42.3734983,-71.0983739,
1856602854,bicycle_parking,,42.3747988,-71.110444,24
1856602859,bicycle_parking,,42.3744802,-71.1112731,50
1856602867,bicycle_parking,,42.3734117,-71.1111629,24
1859042260,bicycle_parking,,42.3707316,-71.1042653,6
1859042263,bicycle_parking,,42.3706275,-71.103989,8
1859043944,bicycle_parking,,42.3742171,-71.1115716,12
1859043945,bicycle_parking,,42.3740824,-71.1115689,24
1860586893,bicycle_parking,,42.3796609,-71.094075,2
1860587240,bicycle_parking,,42.3794801,-71.0944873,4
1860591009,bicycle_parking,,42.3797406,-71.0954355,2
1860591024,bicycle_parking,,42.379721,-71.0952906,4
1861160925,bicycle_parking,,42.3751972,-71.1133632,16
1861160926,bicycle_parking,,42.3755579,-71.1141035,40
1883310750,fast_food,Alive & kicking,42.3625342,-71.1139517,
1883345080,pharmacy,CVS Pharmacy,42.3650944,-71.1036157,
1884036267,fast_food,Dunkin',42.3608792,-71.1154484,
1884037146,atm,Chase,42.3607422,-71.1154386,2
1884053775,doctors,MIT Medical,42.3611856,-71.0865422,
1884054889,cafe,Koch Cafe,42.362143,-71.0892356,
1884055322,cafe,Forbes Family Cafe,42.3617308,-71.0900125,
1884056372,cafe,Peet's Coffee,42.3590789,-71.0930443,
1907894751,bank,Cambridge Trust Company,42.362785,-71.0884131,
1907895893,cafe,Starbucks,42.3638468,-71.0878195,
1907895940,restaurant,Legal Sea Foods,42.3627052,-71.0878363,
1914291499,cafe,Tatte Bakery and Café,42.3649355,-71.0826912,
1914343564,restaurant,Catalyst,42.3630787,-71.0916056,
1915267811,fuel,Shell,42.3582321,-71.1262334,
1919639193,kindergarten,Tree House Academy,42.3782809,-71.1072055,
1923030503,bicycle_parking,,42.367951,-71.1020677,6
1923030511,bicycle_parking,,42.3677974,-71.1022112,10
1923060652,car_sharing,,42.3659721,-71.1057444,2
1943740303,parking,,42.375239,-71.104907,
1956025235,restaurant,Bronwyn,42.379744,-71.0946019,
1956025292,fast_food,Union Square Pizzeria,42.3798022,-71.0954115,
1956025295,atm,Bank of America,42.3797919,-71.0952934,
1970207188,bicycle_parking,,42.3798436,-71.1055804,4
1978841868,library,Athlete Study Hall,42.3540783,-71.121003,
1982204860,bicycle_parking,Bike Rack,42.3605752,-71.0866418,52
1982207058,parking_entrance,,42.3604251,-71.0850435,
1982211595,bicycle_parking,,42.3594997,-71.0884999,14
1982212064,bicycle_parking,,42.3594121,-71.089068,20
1982212704,bicycle_parking,,42.3587069,-71.0950016,40
1982213354,bicycle_parking,,42.359143,-71.0943257,40
1982214742,bicycle_parking,,42.360126,-71.0880171,15
1982219083,bicycle_parking,,42.3589844,-71.090356,15
1982221450,bicycle_parking,,42.3608668,-71.0880039,15
1982224208,library,Barker Library,42.3597611,-71.0920607,
1982225129,library,Rotch Library,42.359254,-71.093242,
1982225149,library,Dewey Library,42.3611465,-71.0837124,
1982226094,bicycle_parking,,42.3607106,-71.0911114,20
1982226095,bicycle_parking,,42.3608475,-71.0907637,12
1982227550,bench,,42.3602999,-71.0902825,
1982228737,bicycle_parking,,42.3613311,-71.0897337,62
1982229101,bicycle_parking,,42.3609585,-71.0895191,32
1991729948,bicycle_parking,,42.3660892,-71.0930874,4
1991729949,bicycle_parking,,42.3660367,-71.092901,4
2029239160,bicycle_parking,,42.3709195,-71.1011945,4
2061219853,place_of_worship,St. John's Chapel,42.3763538,-71.1247294,
2129951373,restaurant,Salts,42.3630947,-71.0972166,
2129978857,restaurant,Dosa Factory,42.3649038,-71.1025118,
2130009488,bar,Brick & Mortar,42.3648573,-71.1024593,
2134089521,fast_food,Chipotle,42.3648585,-71.1032006,
2268323960,bench,,42.3795128,-71.0948518,
2268323963,bench,,42.3795199,-71.0948154,
2268323969,bench,,42.379609,-71.0949694,
2268323970,bench,,42.3796153,-71.0950626,
2268323975,bench,,42.3796329,-71.0937522,
2268323982,bench,,42.379674,-71.0952479,
2268323983,bench,,42.3796753,-71.0952832,
2268323989,bench,,42.379698,-71.0952718,
2268323994,bench,,42.3797165,-71.0949524,
2268323995,bench,,42.3797215,-71.0950473,
2294209696,bicycle_parking,,42.3650442,-71.102076,24
2332497163,bicycle_parking,Zesiger Center bike stands,42.3582444,-71.096169,44
2332497164,bicycle_parking,Zesiger center bike stands,42.3589421,-71.0963568,56
2332497165,bicycle_parking,Kendall T bike stands 2,42.36235,-71.0862489,
2332497166,bicycle_parking,Kendall T bike stands 1,42.3623322,-71.0860383,4
2446018087,fast_food,Dunkin',42.3588364,-71.0950171,
2447298562,bicycle_parking,,42.3756971,-71.1030106,15
2449738479,cafe,Flour Bakery + Cafe,42.361035,-71.096684,
2463182830,restaurant,The Kirkland Tap & Trotter,42.3782653,-71.1068942,
2475768995,restaurant,The Boathouse,42.3713955,-71.1167459,
2477391465,drinking_water,,42.375496,-71.1174,
2488980556,restaurant,Field & Vine,42.3799924,-71.0945161,
2501058123,theatre,Wong Auditorium,42.3607842,-71.0844461,
2501165514,fast_food,Bon Me,42.3661745,-71.0908297,
2560514681,fast_food,Beantown Taqueria,42.3617452,-71.0972055,17
2590730353,restaurant,Grafton Street Pub & Grill,42.3718723,-71.1208925,
2590730357,restaurant,Hong Kong,42.3723688,-71.1160001,
2591141295,restaurant,Chicago Pizza,42.3616789,-71.0970931,40
2622538171,restaurant,Ebi Sushi,42.379091,-71.0946305,
2686928559,fast_food,Chipotle,42.3625446,-71.0856044,
2697094682,cafe,Tatte Bakery and Cafe,42.3663805,-71.0930616,
2699408902,atm,Bank of America,42.365017,-71.1034742,
2699408904,bank,TD Bank,42.3652603,-71.1031316,
2699408909,pharmacy,Walgreens,42.3654664,-71.1034776,
2707308537,restaurant,Shalimar of India,42.3643462,-71.1023366,
2707441931,restaurant,Asmara Restaurant,42.3664123,-71.1050773,
2707976345,pub,"730 Tavern, Kitchen & Patio",42.3660159,-71.1051419,
2707976346,fast_food,Mass Chicken,42.3660758,-71.1052378,
2707976349,fast_food,ABC Pizza House,42.3661531,-71.105349,
2707976352,dentist,Dr. Dental,42.3659485,-71.1050185,
2707976354,bank,Citizens Bank,42.366002,-71.104356,
2707976355,bank,Bank of America,42.3661645,-71.1046644,
2707976357,bank,Leader Bank,42.3657662,-71.1039536,
2707976358,bank,Eastern Bank,42.3655496,-71.1036197,
2707976359,bar,Cuchi Cuchi,42.3633583,-71.0971274,
2707976362,restaurant,ZuZu,42.3638002,-71.1013814,
2707976363,restaurant,The Middle East Corner,42.363832,-71.1014404,
2707976365,studio,Cambridge Community Television,42.3635069,-71.1008959,
2707976366,atm,Bank of America,42.360366,-71.0948785,
2707976385,bank,People's United Bank,42.3641001,-71.1011382,
2709425519,restaurant,Brookline Lunch,42.3638017,-71.101702,
2752899899,cafe,Cafe Gato Rojo,42.3735895,-71.1184022,
2777241126,pub,The Plough and Stars,42.3682614,-71.1087976,
2777249475,restaurant,Pammy's,42.3684329,-71.1091866,
2791770153,dentist,Kappa Dental Group,42.3783241,-71.1056447,
2819172974,cafe,Zinneken's,42.3712112,-71.1145923,
2908119874,cafe,Starbucks,42.3630323,-71.0856665,
2939190922,theatre,ImprovBoston,42.3661119,-71.1032447,
2966948876,bar,Parlor Sports,42.3744435,-71.1015002,
3010280539,cafe,Darwin's Ltd.,42.3689611,-71.1136071,
3043603755,restaurant,Dumpling House,42.3687019,-71.1098463,
3061411330,bicycle_rental,Blue Bikes - 359 Broadway - Broadway at Fayette Street,42.370803,-71.104412,18
3061421192,bicycle_rental,Blue Bikes - Beacon St at Washington / Kirkland,42.378551,-71.106541,14
3061423726,bicycle_rental,Blue Bikes - Cambridge St - at Columbia St / Webster Ave,42.3730344,-71.0943444,13
3061423728,bicycle_rental,Blue Bikes - Harvard University River Houses / DeWolfe St at Grant St,42.3698166,-71.1167107,15
3061423792,bicycle_rental,Blue Bikes - Biogen Idec - Binney St / Sixth St,42.366095,-71.086388,18
3061424238,bicycle_rental,Blue Bikes - Cambridge Main Library at Broadway / Trowbridge St,42.3734603,-71.1111571,17
3061424240,bicycle_rental,Blue Bikes - Central Sq Post Office / Cambridge City Hall at Mass Ave / Pleasant St,42.3664339,-71.1055969,17
3061424241,bicycle_rental,Blue Bikes - Central Square at Mass Ave / Essex St,42.36507,-71.1031,17
3061424275,bicycle_rental,Blue Bikes - Union Square - Somerville,42.3796226,-71.0952023,19
3061424939,bicycle_rental,Bluebikes - Dana Park,42.3617903,-71.1080704,16
3061425957,bicycle_rental,Bluebikes - Harvard Kennedy School at Bennett St / Eliot St,42.3719885,-71.1217612,23
3061426234,bicycle_rental,Blue Bikes - Harvard University Housing - 115 Putnam Ave at Peabody Terrace,42.366621,-71.114214,14
3061427033,bicycle_rental,Blue Bikes - Harvard Law School at Mass Ave / Jarvis St,42.3783731,-71.119928,19
3061427035,bicycle_rental,Blue Bikes,42.3733172,-71.1210019,14
3061427036,bicycle_rental,Bluebikes - Harvard Square at Mass Ave/ Dunster,42.373234,-71.1185418,16
3061427037,bicycle_rental,Blue Bikes - Harvard University / SEAS Cruft-Pierce Halls at 29 Oxford St,42.3779201,-71.116919,17
3061427038,bicycle_rental,Blue Bikes - Harvard University Gund Hall at Quincy St / Kirkland S,42.376369,-71.114025,15
3061427039,bicycle_rental,Blue Bikes - Harvard University Housing - 111 Western Ave. at Soldiers Field Park,42.3644647,-71.1184111,13
3061427043,bicycle_rental,Blue Bikes - Inman Square at Vellucci Plaza / Hampshire St,42.374035,-71.101427,19
3061427044,bicycle_rental,Blue Bikes - Innovation Lab - 125 Western Ave. at Batten Way,42.363732,-71.1245865,14
3061427050,bicycle_rental,Blue Bikes - Kendall T at Main St,42.3624573,-71.08521,17
3061427052,bicycle_rental,Blue Bikes - Lafayette Square at Mass Ave / Main St / Columbia St,42.3633303,-71.1004675,15
3061427059,bicycle_rental,Blue Bikes - Lower Cambridgeport at Magazine St/Riverside Rd,42.3571527,-71.1138443,19
3061427060,bicycle_rental,Blue Bikes - MIT Stata Center at Vassar St / Main St,42.3619245,-71.0915241,23
3061427061,bicycle_rental,Blue Bikes - MIT at Mass Ave / Amherst St,42.3583015,-71.0932769,25
3061427067,bicycle_rental,Bluebikes - One Broadway / Kendall Sq at Main St / 3rd St,42.3622704,-71.083197,22
3061427068,bicycle_rental,Blue Bikes - One Kendall Square at Hampshire St / Portland St,42.366277,-71.09169,19
3061427070,bicycle_rental,Bluebikes,42.3522601,-71.1237528,26
3067171278,bar,Backbar,42.3799325,-71.0945397,
3168672556,restaurant,Faialense Sport Club,42.3731918,-71.0957768,
3181728961,restaurant,Vialé,42.364022,-71.101797,
3185679970,restaurant,Bao Nation,42.3650238,-71.1022587,
3190278367,bicycle_repair_station,,42.3627433,-71.0841123,
3267743938,fast_food,Ki Bistro,42.3526094,-71.1213609,
3299685013,bicycle_parking,,42.3771474,-71.1175105,30
3299685014,bicycle_parking,,42.3776571,-71.1168533,14
3299685015,bicycle_parking,,42.3774794,-71.1181907,20
3299685016,bicycle_parking,,42.3775206,-71.1185357,10
3299685017,bicycle_parking,,42.3772201,-71.1186549,15
3299685018,bicycle_parking,,42.3776582,-71.1191734,10
3299685021,bicycle_parking,,42.3781998,-71.1187875,10
3299685022,bicycle_parking,,42.3785069,-71.1185044,10
3299685023,bicycle_parking,,42.3787733,-71.1178025,40
3299685024,bicycle_parking,,42.3781161,-71.1169129,20
3299685025,bicycle_parking,,42.3783638,-71.1170232,20
3350588744,community_centre,Windsor St. Health & Community Center,42.3646976,-71.0966449,
3354771177,research_institute,Merrimack Pharmaceuticals,42.3625653,-71.0832886,
3376088217,bicycle_repair_station,,42.3548414,-71.1030972,
3376088218,bicycle_repair_station,,42.3585518,-71.0952544,
3376088219,bicycle_repair_station,,42.3585966,-71.1014923,
3376088220,bicycle_repair_station,,42.3594477,-71.0935593,
3376088221,bicycle_repair_station,,42.3606725,-71.0846499,
3376088222,bicycle_repair_station,,42.3610793,-71.0874219,
3376088223,bicycle_repair_station,,42.3612156,-71.0908771,
3376088224,bicycle_repair_station,,42.3617507,-71.091386,
3376088225,bicycle_repair_station,,42.3643556,-71.1241408,
3376088226,bicycle_repair_station,,42.363834,-71.115011,
3376088228,bicycle_repair_station,,42.373573,-71.1098263,
3376088230,bicycle_repair_station,,42.3782917,-71.1195949,
3376088231,bicycle_repair_station,,42.3793532,-71.1128269,
3442432063,bicycle_parking,,42.3757236,-71.1154549,145
3465461753,recycling,E&C Bottle and Can Return,42.3739218,-71.0944819,
3497698413,bicycle_repair_station,,42.3757989,-71.1160161,
3498178093,post_box,,42.377781,-71.108408,
3499306995,post_box,,42.3591051,-71.0935175,
3532106986,bench,,42.3612991,-71.0877204,
3532106987,bench,,42.3613347,-71.0881067,
3532106988,bench,,42.3612937,-71.0874528,
3539112314,restaurant,Naco Taco,42.3623342,-71.0981162,
3545396799,waste_basket,,42.3604356,-71.1271415,
3548213208,bench,,42.3593145,-71.0873792,
3548323193,bench,,42.36144,-71.0875771,
3548323194,bench,,42.3613828,-71.0875847,
3548323196,bench,,42.3612287,-71.0880832,
3548323197,bench,,42.3614101,-71.0875811,
3548323198,bench,,42.3612765,-71.0873012,
3548323199,bench,,42.3612837,-71.0873849,
3551862421,bench,,42.3623131,-71.0844763,
3554978217,telephone,,42.3606622,-71.0901854,
3554978218,post_box,,42.3606366,-71.090203,
3554978219,recycling,,42.3606073,-71.0902924,
3555118739,bicycle_parking,,42.3607104,-71.0894278,34
3556309422,bench,,42.3752167,-71.1271047,
3556508296,bench,,42.3615532,-71.0897273,
3556508297,bench,,42.3616083,-71.0897369,
3556508298,bench,,42.3613737,-71.0889475,
3556508299,bench,,42.3612469,-71.0896568,
3556508300,bench,,42.3611979,-71.0896361,
3556508301,bench,,42.3613366,-71.0896888,
3556508302,bench,,42.3613871,-71.0897012,
3556678673,bicycle_parking,,42.3579959,-71.0923324,24
3556678674,bench,,42.3612424,-71.08684,
3566470729,bicycle_parking,,42.361097,-71.0874162,12
3566470730,bicycle_parking,,42.3612252,-71.085917,46
3577716497,restaurant,Oleana,42.3705673,-71.0971787,
3579517215,childcare,Rock & Roll Daycare,42.3694682,-71.1006627,
3599747348,waste_basket,,42.3690545,-71.1174825,
3599747349,recycling,,42.3690611,-71.1174739,
3599747350,waste_basket,,42.3690861,-71.1175077,
3599747351,recycling,,42.3690791,-71.1175154,
3599751390,bench,,42.3688298,-71.1174651,
3599751391,bench,,42.3692856,-71.118372,
3599751392,bench,,42.3691387,-71.1180075,
3599755293,bench,,42.3694047,-71.1187961,
3601574352,police,Harvard University Police - Mather House Sub Station,42.3687212,-71.115319,
3602473308,theatre,OBERON,42.3709312,-71.114336,
3602530219,restaurant,Boston Burger Company,42.3708518,-71.1136824,
3602661368,restaurant,Cilantro Chinese Cuisine,42.3708297,-71.1136523,
3606211243,bicycle_parking,MDC Bikeway Rack,42.3693984,-71.1180172,16
3625525213,restaurant,Angelo's Pizza,42.3730267,-71.1108039,
3657729125,restaurant,Zoe's,42.3707176,-71.1135032,
3658341425,restaurant,Bosso Ramen Tavern,42.372168,-71.118338,
3660719028,bicycle_parking,,42.363837,-71.11494,12
3660719029,bicycle_parking,,42.364693,-71.115501,4
3660719030,drinking_water,,42.364948,-71.115552,
3660915025,bicycle_parking,,42.371665,-71.119563,12
3699739603,toilets,,42.357015,-71.1153136,
3703444015,bicycle_repair_station,,42.3756881,-71.1030251,
3708521822,restaurant,Toscanni,42.3742959,-71.1219649,
3708525238,toilets,,42.3741002,-71.1142663,
3773232831,restaurant,Clover HFI,42.3639406,-71.1016034,
3777190162,restaurant,Beijing Tokyo,42.3633417,-71.0968378,
3777190163,restaurant,Primo Pizza & Roast Beef,42.3633451,-71.0968948,
3779088173,coworking_space,Versify Web,42.3663034,-71.1033969,
3779096592,dentist,Prospect Dental,42.3659509,-71.1034235,
3869527706,bicycle_rental,Blue Bikes - Main St at Ames St,42.362353,-71.0883144,18
3895924480,bicycle_parking,,42.3742325,-71.1013225,2
3895953404,restaurant,Village Grill & Seafood,42.3599165,-71.1100389,15
3951791117,restaurant,All Star Pizza Bar,42.3732559,-71.0980819,20
3973873253,restaurant,Juliet,42.3797312,-71.0968042,
3973873255,restaurant,Gracie's Ice Cream,42.379807,-71.096652,
3976406129,bicycle_repair_station,,42.3762311,-71.1140363,
3988352417,restaurant,Shanghai Fresh,42.3663914,-71.1050289,
4013910075,restaurant,Happy Lamb Hot Pot,42.3641618,-71.1012393,
4015078893,restaurant,La Fabrica Central,42.3636315,-71.1010503,
4039373450,toilets,,42.3749189,-71.1189366,
4133867719,vending_machine,,42.3755665,-71.1028658,
4137279567,bench,,42.3665564,-71.1028944,
4137279573,fast_food,Beauty's Pizza,42.3728532,-71.0991618,
4137279574,bench,,42.3681667,-71.1017527,
4172418805,bank,Cambridge Trust Company,42.3730121,-71.1181631,
4172418807,fast_food,Clover Food Lab,42.3729275,-71.1178619,
4195245317,restaurant,The Black Sheep,42.3623423,-71.0872229,
4195245318,fast_food,Clover,42.3627028,-71.0873684,
4241534100,bicycle_repair_station,,42.3590217,-71.1004315,
4267069424,bank,Bank of America,42.373865,-71.1194127,
4267069425,nightclub,Club Passim,42.3742245,-71.1200134,
4267069467,restaurant,Russell House Tavern,42.3731248,-71.1194187,
4267069469,fast_food,Tasty Burger,42.3725971,-71.1199019,
4267069470,restaurant,Chutney's,42.3726803,-71.1198198,
4267069472,school,New England School of Language,42.3725026,-71.1195257,
4267098790,restaurant,The Sinclair,42.3740762,-71.120629,
4267134582,post_office,FedEx,42.3734296,-71.1226375,
4267134584,restaurant,Harvest,42.3737684,-71.1218285,
4267135403,school,Cambridge Center for Adult Education,42.3736527,-71.121688,
4267278516,restaurant,Legal Sea Foods,42.3720308,-71.1235632,
4267278517,restaurant,Henrietta's Table,42.3722812,-71.1233211,
4267278518,bar,Regattabar,42.372203,-71.1228944,
4267278519,bar,Noir,42.3723595,-71.1226705,
4267292052,restaurant,The Red House,42.3723491,-71.1212504,
4267292053,restaurant,Charlie's Kitchen,42.3724072,-71.1215195,
4267292054,restaurant,IHOP,42.372063,-71.1214254,
4267292079,cafe,Peet's Coffee,42.3726335,-71.1206838,
4267292083,pub,Grendel's Den,42.3724127,-71.1208558,
4288083891,parking_entrance,,42.3601221,-71.0997335,
4288112491,parking_entrance,,42.3605373,-71.0973519,
4317732732,community_centre,The Democracy Center,42.3712604,-71.1162574,
4322208750,restaurant,The Smoke Shop BBQ,42.3662592,-71.0914389,
4327401890,restaurant,Little Donkey,42.3643284,-71.101556,
4327466099,restaurant,Mamaleh's,42.365965,-71.09108,
4329266296,library,Hayden Memorial Library,42.3590664,-71.0891802,
4329266297,library,Lewis Music Library,42.359328,-71.0890183,
4330207677,computer_cluster,Fishbowl Athena Cluster,42.3594111,-71.0926192,
4360316674,post_box,,42.3637644,-71.1011959,
4360316675,waste_basket,,42.3637811,-71.1012169,
4360316676,bicycle_parking,,42.3637961,-71.101185,12
4360316677,waste_basket,,42.3639337,-71.1010093,
4360316679,bicycle_parking,,42.3638836,-71.1009058,6
4360361287,post_box,,42.3640848,-71.1079939,
4360361288,waste_basket,,42.3642597,-71.1078156,
4360409420,bicycle_parking,,42.3641168,-71.1078873,2
4360409421,bicycle_parking,,42.3641454,-71.1077966,2
4360409425,bicycle_parking,,42.3642766,-71.1077597,2
4360416198,bench,,42.3642355,-71.1074471,
4360478889,bench,,42.3651786,-71.106575,
4360478890,bicycle_parking,,42.3651771,-71.1063309,4
4360478891,bench,,42.3652583,-71.1062035,
4360478892,bicycle_parking,,42.3652207,-71.1057972,10
4360478893,waste_basket,,42.3652653,-71.105537,
4360478903,waste_basket,,42.3642536,-71.1074869,
4360478904,bicycle_parking,,42.3642407,-71.1075392,2
4360478905,bicycle_parking,,42.3644438,-71.1069169,6
4360478906,bicycle_parking,,42.3648263,-71.1058373,2
4360478907,bicycle_parking,,42.3648005,-71.1059232,4
4360490100,bench,,42.3652968,-71.1040749,
4360542974,bicycle_parking,,42.3650126,-71.1053896,2
4360542975,bench,,42.3650402,-71.1053135,
4360542976,bench,,42.3650009,-71.1054354,
4360542977,bench,,42.3649738,-71.1055288,
4360542978,bench,,42.3649362,-71.1055056,
4360542979,bench,,42.3649685,-71.1054068,
4360542980,waste_basket,,42.3649559,-71.1054499,
4360542981,bench,,42.3649892,-71.1053404,
4360542982,bench,,42.3650129,-71.1052727,
4360542983,waste_basket,,42.3653396,-71.1048199,
4360542984,bicycle_parking,,42.3653429,-71.1047438,14
4360542985,waste_basket,,42.3649573,-71.1044316,
4360542986,bench,,42.3649843,-71.1044564,
4360542987,bench,,42.3650282,-71.1044311,
4360543289,fast_food,Subway,42.3650005,-71.1043977,
4360543291,waste_basket,,42.3650961,-71.1044037,
4360543292,waste_basket,,42.3652629,-71.1042345,
4360543293,telephone,,42.3652867,-71.1041833,
4360543294,telephone,,42.3652974,-71.1038548,
4360543295,toilets,,42.3655108,-71.1042912,
4360543296,bicycle_parking,,42.3654242,-71.1043893,8
4360558222,fast_food,Mainely Burgers,42.3659222,-71.1049426,
4360569813,bicycle_parking,,42.3665288,-71.1057339,10
4360569814,post_box,,42.3667019,-71.1060302,
4360583155,bicycle_parking,,42.3670112,-71.1065811,4
4360583156,bicycle_parking,,42.3668757,-71.1063739,10
4360583157,bench,,42.3667644,-71.106149,
4360583158,bench,,42.3669105,-71.1058997,
4363676691,bicycle_parking,,42.3643668,-71.1074863,2
4363676692,bicycle_parking,,42.3643952,-71.1074109,6
4363676693,bicycle_parking,,42.364416,-71.1073447,2
4363676694,bicycle_parking,,42.3646707,-71.1065715,2
4363704732,bench,,42.3661292,-71.1047468,
4363704733,bench,,42.3661847,-71.1047932,
4363704734,bicycle_parking,,42.3661306,-71.1051475,4
4363704735,waste_basket,,42.3661647,-71.1052048,
4363704736,bench,,42.3662257,-71.1053023,
4363704737,waste_basket,,42.3662717,-71.1053644,
4363704739,waste_basket,,42.3658844,-71.1061552,
4363704740,bicycle_parking,,42.365254,-71.1068406,4
4365535125,bicycle_parking,,42.3651877,-71.1061637,2
4365535126,waste_basket,,42.3652012,-71.1060132,
4365535128,bicycle_parking,,42.365419,-71.1038791,6
4365535129,bench,,42.3653811,-71.1038349,
4365535130,bench,,42.3650263,-71.1032632,
4365535131,waste_basket,,42.3650591,-71.1032771,
4365535132,bicycle_parking,,42.3652743,-71.1032449,6
4378097784,bicycle_parking,,42.3642261,-71.1036493,24
4378097785,dojo,C.W. Taekwondo,42.3644781,-71.1035544,
4378381010,cafe,Cafe 4,42.3598525,-71.0913169,
4378426737,restaurant,Hokkaido Ramen Santouka,42.3721154,-71.1158389,
4388609590,drinking_water,,42.3787572,-71.0990068,
4388609593,bench,,42.3787957,-71.0984357,
4388609596,bench,,42.3788166,-71.0986294,
4388609608,waste_basket,,42.3788638,-71.0984127,
4406010486,waste_basket,,42.3637509,-71.1037535,
4406010487,bicycle_parking,,42.3638027,-71.1037156,14
4416151000,bench,,42.3689992,-71.1100465,
4416151001,bicycle_parking,,42.3690079,-71.1100727,4
4416151016,post_box,,42.3699488,-71.1131317,
4416151017,post_box,,42.3699518,-71.1131418,
4482077935,post_box,,42.3635042,-71.1063442,
4482097409,post_box,,42.3592099,-71.1108903,
4483943925,cafe,Caffè Nero,42.3650595,-71.1027878,
4540532983,fast_food,Domino's,42.3697046,-71.1119024,
4541712431,social_facility,AIDS Action Committee,42.3657073,-71.1055987,
4548732441,bicycle_parking,,42.3626158,-71.0872531,6
4548732442,bicycle_parking,,42.3626555,-71.0878123,32
4549551449,fast_food,Shake Shack,42.3722961,-71.1209868,
4554454512,bicycle_rental,,42.3636037,-71.0874882,19
4722509102,fast_food,Saloniki,42.3609827,-71.0959949,
4727413215,post_office,The UPS Store,42.3524017,-71.1246716,
4731133945,cinema,Brattle Theatre,42.3735328,-71.1214761,
4731133947,restaurant,Alden & Harlow,42.3735585,-71.1213903,
4804188846,parking_entrance,,42.354538,-71.1051644,
4804188847,parking_entrance,,42.3544825,-71.105278,
4826277222,restaurant,Felipe's Taqueria,42.3734706,-71.120511,
4831812706,post_box,,42.3748307,-71.1089476,
4831814527,pharmacy,Skendarian Apothecary,42.3749496,-71.1089369,
4831816270,restaurant,Mona Lisa,42.3749209,-71.109122,
4839240146,waste_basket,,42.3649741,-71.1074321,
4839259297,fast_food,Beantown Taqueria Café,42.3647948,-71.1087981,
4841884768,bicycle_parking,,42.3629126,-71.1114578,2
4841884769,bicycle_parking,,42.3624344,-71.1132265,2
4841884770,bicycle_parking,,42.3623213,-71.1132118,2
4841884776,waste_basket,,42.3629877,-71.1115945,
4841884777,bench,,42.3611291,-71.1142213,
4841884779,waste_basket,,42.3624114,-71.1133056,
4841884780,post_box,,42.3624304,-71.1135024,
4846358249,bench,,42.3717554,-71.1177469,
4846358250,waste_basket,,42.372028,-71.1184839,
4846358251,bicycle_parking,,42.3722373,-71.1190121,20
4846358252,waste_basket,,42.372351,-71.119422,
4846358254,atm,Bank of America,42.3720557,-71.1184101,
4846358258,post_box,,42.3721548,-71.1192301,
4846396740,bench,,42.3756799,-71.1196465,
4846396742,bench,,42.3756505,-71.1197012,
4856067780,public_bookcase,,42.3660753,-71.1020439,
4856089866,bicycle_parking,,42.364699,-71.1022872,12
4866452404,bench,,42.3598925,-71.0894988,
4888182874,table,,42.3634865,-71.1000836,
4888182875,bicycle_parking,,42.3634391,-71.1001842,2
4888182876,table,,42.363507,-71.1001723,
4888182877,waste_basket,,42.3633452,-71.0997286,
4888182878,table,,42.3634081,-71.0999757,
4888182879,bicycle_parking,,42.3632916,-71.0995895,4
4888182880,table,,42.3634768,-71.0999843,
4888182881,waste_basket,,42.3634025,-71.1001201,
4888182882,table,,42.3635033,-71.1000978,
4888182883,bench,,42.3633836,-71.0999067,
4888182884,table,,42.3634232,-71.0999907,
4888182886,table,,42.3634981,-71.0999615,
4888182887,bicycle_parking,,42.3632952,-71.1004033,6
4888182888,table,,42.3634998,-71.1000642,
4888182889,waste_basket,,42.3634981,-71.0999107,
4888182890,table,,42.3635109,-71.1001998,
4888182891,bench,,42.3633435,-71.0997065,
4888182892,table,,42.3634085,-71.1000114,
4888182893,table,,42.3634993,-71.100002,
4888215437,waste_basket,,42.3626119,-71.1002945,
4888215438,vending_machine,,42.3625085,-71.100252,
4888215440,bicycle_rental,Blue Bikes - University Park at Sindey Street,42.3626749,-71.1000623,19
4888215441,waste_basket,,42.3625297,-71.1001486,
4888215442,waste_basket,,42.3627029,-71.1002612,
4888215443,waste_basket,,42.3628233,-71.0999861,
4953334422,drinking_water,,42.3608085,-71.1125042,
4960004928,bench,,42.3640589,-71.1012582,
4960004929,waste_basket,,42.3640086,-71.1011963,
4960004930,bicycle_parking,,42.3641342,-71.1013781,6
4960004931,bench,,42.3643088,-71.1016589,
4978287999,fast_food,Dunkin',42.3741932,-71.1211652,
4987379326,bank,Bank of America,42.373958,-71.086092,
4987379335,dentist,Gentle Dental,42.3742572,-71.0858882,
4987379336,fast_food,Dunkin',42.3743424,-71.0857379,
4987379339,pharmacy,Rite Aid,42.374287,-71.0848314,
4987383299,restaurant,Courthouse Seafood,42.3715197,-71.0845055,
4987383301,bench,,42.3717293,-71.0846208,
4987383302,waste_basket,,42.3717129,-71.0846436,
4987429681,bar,,42.3720617,-71.0868953,
4987429682,cafe,Elmendorf Cafe,42.3717535,-71.0864581,
4987429688,restaurant,Pronto Cafe,42.3720745,-71.0871809,
4987429689,kindergarten,The Learning Center,42.3720865,-71.0872453,
4987429692,restaurant,Loyal Nine,42.3718883,-71.0876571,
4987429695,restaurant,Alfredo's Italian Kitchen,42.3722014,-71.088105,
4995729251,bench,,42.3637058,-71.100648,
4995729252,bicycle_parking,,42.3636672,-71.1005905,10
4995729253,bicycle_parking,,42.3636061,-71.1004993,4
4995729254,bench,,42.3637564,-71.1007361,
5021253143,drinking_water,,42.3766351,-71.1220315,
5021253144,bicycle_parking,,42.376537,-71.1219336,6
5043116421,pharmacy,CVS Pharmacy,42.3733111,-71.1193284,
5043116425,bank,Capital One,42.3729156,-71.1196523,
5122876709,fast_food,Oath Craft Pizza,42.3611761,-71.0963232,
5154229522,bench,,42.3638576,-71.1086238,
5154243682,bench,,42.3551743,-71.1149147,
5154243683,bench,,42.3552407,-71.1148063,
5154243684,bench,,42.3548662,-71.1148281,
5154243685,bench,,42.3542943,-71.1137395,
5154243686,bench,,42.3542221,-71.1135937,
5154243687,bench,,42.3541395,-71.1134457,
5246391528,restaurant,The Automatic Food & Drink,42.3666252,-71.0924868,
5287449771,bar,Shays Pub and Wine Bar,42.3717481,-71.1206486,
5360778410,arts_centre,FIlm Archive,42.3737039,-71.1142758,
5367409276,bench,,42.3624271,-71.0844827,
5367409277,bench,,42.3624563,-71.0844362,
5367409278,bench,,42.3624661,-71.0843761,
5367409279,bench,,42.3624362,-71.0842974,
5367409280,bench,,42.3623887,-71.0842715,
5367409281,bench,,42.3623502,-71.0842789,
5367409282,bench,,42.3623143,-71.0843108,
5367409283,bench,,42.3622916,-71.0844179,
5458427868,parking_entrance,,42.3671152,-71.1129784,
5521059842,restaurant,Puritan & Company,42.373089,-71.0968126,
5599088678,bench,,42.361903,-71.1150986,
5600422653,cafe,Starbucks,42.3767904,-71.0908433,
5600425467,bench,,42.3767801,-71.0907014,
5620970108,post_box,,42.3653598,-71.1038071,
5627766951,fast_food,Roxy’s Grilled Cheese,42.362146,-71.0986307,
5629471126,restaurant,Pagu,42.3623784,-71.0989865,
5633722503,post_box,,42.3628829,-71.0937258,
5633722504,waste_basket,,42.3629144,-71.0937606,
5633722506,restaurant,Sulmona,42.3628673,-71.0939078,
5633740689,fast_food,Al’s Cafe,42.3631036,-71.0931925,
5633740691,atm,Bank of America,42.3631071,-71.0933745,
5633753512,bank,Fidelity Bank,42.3629777,-71.0911518,
5633753513,fast_food,Legal Fish Bowl,42.3627023,-71.0876051,
5633796988,bank,Boston Private Bank & Trust Company,42.362526,-71.0854557,
5638563110,cafe,Broadsheet Coffee Roasters,42.3779605,-71.1073717,
5642011758,nightclub,Sonia,42.3635621,-71.101637,
5646118321,restaurant,Life Alive,42.366639,-71.105435,
5659796957,waste_basket,,42.3651424,-71.1034483,
5659796958,bicycle_parking,,42.3651995,-71.1035946,12
5659796959,bicycle_parking,,42.3651581,-71.1035312,16
5673174630,cafe,Darwin's Limited,42.362439,-71.0984067,
5678029481,post_office,Amazon Pickup,42.3651852,-71.1042178,
5741586948,bicycle_repair_station,,42.3743996,-71.0853884,
5779368872,theatre,,42.3724565,-71.1177802,
5808138653,cafe,Longfellows,42.3678721,-71.0980312,
5810341753,restaurant,Lone Star Taco Bar,42.372043,-71.0869426,
5869749334,restaurant,Insomnia Cookies,42.3720083,-71.1181628,
5872296712,bicycle_parking,,42.3637514,-71.0927559,60
5920873609,restaurant,Silk Road Uyghur Cuisine,42.3720663,-71.08715,
6000709120,bicycle_repair_station,,42.3737869,-71.1006143,
6000709121,bicycle_repair_station,,42.3651374,-71.1158535,
6020288488,cafe,Barismo 364,42.3704436,-71.1042168,
6025039587,cafe,Darwin’s,42.3740084,-71.1251131,
6080902480,bank,Citizens Bank,42.3730682,-71.1207368,
6080902481,restaurant,Pinocchio's,42.371986,-71.1202613,
6101530121,fast_food,Otto,42.3741412,-71.1190921,
6104325100,fast_food,Pokéworks,42.3743072,-71.1191027,
6111160822,restaurant,Daedalus,42.3713445,-71.116583,
6113957501,kindergarten,Bright Horizons,42.3628087,-71.1018743,
6114648230,bicycle_parking,,42.3594223,-71.0994665,6
6114648231,bench,,42.3594375,-71.0994418,
6114648232,bicycle_parking,,42.3589025,-71.1005733,26
6114648233,bicycle_rental,,42.357699,-71.1039048,19
6114648234,post_box,,42.3577475,-71.1039656,
6117409526,bank,Eastern Bank,42.3647694,-71.0831074,
6117409528,fast_food,B. Good,42.3642338,-71.0834156,
6117463841,cafe,Vester,42.3632913,-71.0882151,
6117463842,cafe,Life Alive Organic Cafe,42.3629258,-71.0883977,
6120273936,post_office,The UPS Store,42.3691092,-71.110072,
6122082020,childcare,Kiddie Academy,42.3727243,-71.0987668,
6122082025,clinic,Boston Acne Specialists,42.3733327,-71.0985307,
6122082026,pub,Wit's End,42.3733192,-71.098423,
6122082028,restaurant,Casa Portugal,42.3731647,-71.0973665,
6122082029,restaurant,The Rising,42.3731173,-71.096984,
6122082036,restaurant,Tupelo,42.37338,-71.0971618,
6124468238,cafe,Tatte,42.3726749,-71.116863,
6124468246,clock,,42.3732474,-71.1188678,
6124468247,clock,,42.3732866,-71.1189602,
6124468261,bank,Santander,42.3739693,-71.1191931,
6124468262,post_box,,42.3737453,-71.1192046,
6124468263,clock,,42.3737366,-71.1192099,
6124468274,bicycle_parking,,42.3733369,-71.1204031,
6124468276,bicycle_parking,,42.373307,-71.1206669,
6124468279,bank,Webster Bank,42.3732963,-71.1211277,
6124473590,pub,Whitney's,42.3727636,-71.1201765,
6124473594,restaurant,El Jefe's Taqueria,42.3725334,-71.1197363,
6124473595,fast_food,Subway,42.3724727,-71.1194619,
6124473598,ice_cream,Ben & Jerry's,42.3725037,-71.1193876,
6124473601,restaurant,Le's,42.3724842,-71.1193659,
6124473602,restaurant,Oggi,42.3724155,-71.1190977,
6124523701,bench,,42.3701143,-71.1136159,
6124523706,fast_food,Dunkin',42.3695516,-71.1114518,
6124523708,restaurant,Harvest of India,42.3695166,-71.1113392,
6124523710,restaurant,Flame Hot Pot & Sushi,42.3694961,-71.111265,
6124523718,restaurant,Mass Ave Diner,42.3681918,-71.1086529,
6124523730,dentist,Courtyard Dental,42.3673025,-71.1070476,
6124523738,waste_basket,,42.3667547,-71.1057563,
6124523739,recycling,,42.366752,-71.1057491,
6124562822,bicycle_parking,,42.3736624,-71.1190261,10
6124562824,bicycle_parking,,42.3742947,-71.1189536,10
6124562839,bicycle_parking,,42.3743627,-71.118677,
6124562840,post_box,,42.3743511,-71.1186892,
6124562841,waste_basket,,42.3743411,-71.1186911,
6124562842,recycling,,42.3743331,-71.1186921,
6124562844,bench,,42.3742917,-71.1186603,
6124562864,recycling,,42.3734972,-71.1191611,
6124562865,waste_basket,,42.3734893,-71.1191696,
6124562866,fast_food,Pressed Juicery,42.3733296,-71.1191567,
6124562874,marketplace,Charles Square Farmer's Market,42.3723375,-71.1223295,
6124602926,bench,,42.373767,-71.1106029,
6124602927,bench,,42.3737617,-71.1105663,
6124602928,bench,,42.3737664,-71.1105265,
6124602929,bench,,42.373711,-71.110364,
6124602930,bench,,42.3736905,-71.1103422,
6124602931,bench,,42.3736718,-71.1103183,
6189589124,childcare,Snowdrop Montessori,42.3706917,-71.1048256,
6268416655,cafe,Flour Bakery + Cafe,42.3731187,-71.1226685,
6294759242,post_box,,42.3788163,-71.1203924,
6296785285,post_box,,42.3776694,-71.1232724,
6297612549,bicycle_parking,,42.3748616,-71.1102514,10
6297612566,bicycle_parking,,42.3738143,-71.1108738,14
6297612567,bicycle_parking,,42.3768379,-71.0910163,20
6297995250,bicycle_parking,,42.3794724,-71.1153255,20
6297995251,bicycle_parking,,42.3795657,-71.1152338,14
6297995252,bicycle_parking,,42.3796582,-71.1152743,16
6297995253,bicycle_parking,,42.379068,-71.1151722,20
6297995278,bicycle_parking,,42.3772083,-71.1146165,10
6346030545,bicycle_parking,,42.377615,-71.122186,14
6346030546,bicycle_parking,,42.3772747,-71.1214608,6
6355521985,post_box,,42.3787213,-71.124536,
6355522532,post_box,,42.3777807,-71.122491,
6355525966,bicycle_parking,,42.3774932,-71.1218498,8
6357125397,post_box,,42.3790304,-71.1270196,
6359627646,bicycle_parking,,42.3650988,-71.0898258,20
6364027074,post_box,,42.3677621,-71.0972599,
6364068042,post_box,,42.3726631,-71.1096359,
6366502750,post_box,,42.3659214,-71.0925919,
6431850886,restaurant,Mr. Bartley’s Gourmet Burgers,42.3724808,-71.1161415,
6539440268,waste_basket,,42.3732991,-71.0969217,
6539446339,waste_basket,,42.369253,-71.1107931,
6539938635,cafe,Kendall Kitchen,42.3660059,-71.0920952,
6546384459,waste_basket,,42.3666041,-71.1028647,
6564760660,waste_basket,,42.3645288,-71.1143109,
6564767014,waste_basket,,42.3627773,-71.0841411,
6597703821,waste_basket,,42.3552371,-71.1132339,
6597724165,waste_basket,,42.366468,-71.1129403,
6597736397,waste_basket,,42.3740849,-71.1214956,
6597743783,waste_basket,,42.3649633,-71.115508,
6638847366,bench,,42.3708292,-71.1242301,
6638875248,bench,,42.3705842,-71.124102,
6638892621,bench,,42.3700424,-71.1238535,
6638901406,bench,,42.3703667,-71.1240216,
6638908508,bicycle_parking,,42.3713225,-71.122816,
6644967157,waste_basket,,42.3620338,-71.1146133,
6652463145,fountain,,42.3649334,-71.0986502,
6678051555,bench,,42.3724841,-71.1218794,
6678051556,device_charging_station,,42.3724925,-71.121874,2
6708586108,bar,Somerville Brewing Company,42.3748311,-71.0892453,
6754014985,cafe,Blue Bottle,42.3634784,-71.0876196,
6766458274,waste_basket,,42.3644608,-71.1158674,
6780953632,waste_basket,,42.3560884,-71.1149259,
6795635867,waste_basket,,42.3676478,-71.1158977,
6795695981,waste_basket,,42.3579933,-71.1148451,
6821379434,waste_basket,,42.3606997,-71.1019234,
6831365085,waste_basket,,42.3563326,-71.1152312,
6831526773,waste_basket,,42.3708077,-71.1137255,
6833462533,waste_basket,,42.3708885,-71.1157286,
6835783427,waste_basket,,42.355679,-71.099881,
6835817324,waste_basket,,42.3606705,-71.095929,
6876715885,restaurant,Dumpling Daughter,42.3633827,-71.08817,
6876718985,restaurant,CAVA,42.3631928,-71.0877761,
6900449256,waste_basket,,42.3658711,-71.0946922,
6900492555,waste_basket,,42.3554594,-71.0969669,
6900525187,waste_basket,,42.361862,-71.1079284,
6918714383,waste_basket,,42.363378,-71.0980914,
6918767636,waste_basket,,42.3623502,-71.0884749,
6940324436,bench,,42.3611487,-71.107549,
6940324437,drinking_water,,42.3612597,-71.1075631,
6940324438,bench,,42.3611834,-71.107541,
6942844297,waste_basket,,42.3573849,-71.1009026,
6942924729,waste_basket,,42.3614114,-71.1083633,
6942966572,waste_basket,,42.3616467,-71.1077018,
6943109324,waste_basket,,42.3613671,-71.1081307,
6969309085,bicycle_parking,,42.3610122,-71.0926124,8
6969309286,bicycle_parking,,42.3614219,-71.0965558,8
6969309287,bicycle_parking,,42.3619576,-71.0977135,8
7034496538,parking_entrance,,42.3647712,-71.120261,
7058342682,waste_basket,,42.3684061,-71.1090119,
7058392210,waste_basket,,42.3587763,-71.0936561,
7058428635,waste_basket,,42.3622661,-71.0850366,
7058455410,waste_basket,,42.3625566,-71.114635,
7081069253,waste_basket,,42.3568557,-71.1044096,
7091021268,waste_basket,,42.3554178,-71.1111512,
7091024875,waste_basket,,42.3568196,-71.1041009,
7091256839,waste_basket,,42.3617912,-71.1140694,
7091392459,waste_basket,,42.3569313,-71.0968424,
7100193710,bank,First Republic Bank,42.3740957,-71.1214228,
7100193711,place_of_worship,Christian Science Reading Room,42.3744965,-71.1197884,
7100193716,cafe,Bluestone Lane,42.3734973,-71.1206843,
7100193725,restaurant,Benedetto,42.3722276,-71.1229534,
7100193726,restaurant,Hourly Oyster House,42.3728825,-71.1190991,
7100193728,fast_food,Sweetgreen,42.3728716,-71.1200734,
7100193729,restaurant,Tom's Bao Bao,42.3722612,-71.1209104,
7100193731,restaurant,Parsnip,42.3724515,-71.1209476,
7100193732,restaurant,Falafel Corner,42.3725199,-71.1215377,
7100193733,restaurant,B.Good,42.3726784,-71.1213647,
7100193736,bank,Eastern Bank,42.3734909,-71.1212614,
7100193737,bar,Longfellow Bar,42.3736028,-71.1214022,
7100193739,cafe,Pavement Coffeehouse,42.3729747,-71.1187857,
7100193740,restaurant,Saloniki Greek,42.3728171,-71.1188514,
7100193741,fast_food,Blackbird Doughnuts,42.3726081,-71.1184022,
7100193742,cafe,Blue Bottle Coffee,42.3714835,-71.1168814,
7100285256,fast_food,Dunkin',42.3717171,-71.1211329,
7100285258,restaurant,Black Sheep Bagel Cafe,42.3718251,-71.120591,
7100285259,cafe,Dado Tea,42.3741742,-71.1206849,
7100285260,ice_cream,Lizzy's Homemade Ice Cream,42.3744873,-71.1201243,
7100285261,ice_cream,Amorino,42.3720559,-71.1204194,
7100285262,restaurant,Nine Tastes,42.3720202,-71.1204502,
7100285263,restaurant,Orinoco: A Latin Kitchen,42.3717577,-71.1204234,
7103333213,restaurant,Cafe Sushi,42.3706378,-71.1134151,
7103333216,restaurant,The Cellar,42.3694035,-71.1110078,
7103333217,restaurant,Cafe Anthony,42.3693024,-71.1107905,
7105847796,restaurant,Forage,42.3790954,-71.1270837,
7110645315,fast_food,Veggie Grill,42.3720183,-71.1208036,
7110645317,restaurant,Bon Me,42.3727178,-71.118513,
7110645318,restaurant,Whole Heart Provisions,42.3727832,-71.118741,
7110645320,bank,Harvard University Employees Credit Union,42.3727634,-71.1211631,
7110645322,fast_food,Dig,42.3722125,-71.1195269,
7185571085,cafe,Caffè Nero,42.3522328,-71.1226813,
7237446585,atm,,42.3611903,-71.0865311,
7237484286,bench,,42.3598148,-71.0841395,
7237484685,bench,,42.3590318,-71.0864967,
7277126438,waste_basket,,42.3718704,-71.0870042,
7324305501,fountain,,42.3781072,-71.1003278,
7399786065,vending_machine,,42.3649146,-71.119589,
7598963497,bench,,42.3528307,-71.0859958,
7598963498,bench,,42.3528637,-71.0858799,
7598963500,bench,,42.3529166,-71.0860843,
7598963501,bench,,42.3529761,-71.0858867,
7598963502,bench,,42.3529339,-71.0858661,
7626645463,bench,,42.358873,-71.0869914,
7626645464,bench,,42.3589155,-71.0868664,
7631024567,university,Jack C. Tang Center for Management Education,42.3606337,-71.0843631,
7650719480,theatre,Edward M. Pickman Concert Hall,42.3786806,-71.1235882,300
7662617750,bench,,42.3535388,-71.0851088,
7681505265,bench,,42.3549692,-71.0986867,
7681505266,bench,,42.3550175,-71.0985408,
7681505267,bench,,42.3551321,-71.0981529,
7693370586,bench,,42.3530077,-71.0856975,
7693370587,bench,,42.3529608,-71.0856755,
7693370588,bench,,42.3529137,-71.0856516,
7693370589,bench,,42.3529283,-71.0856101,
7693370590,bench,,42.3529735,-71.0856304,
7693370591,bench,,42.3530192,-71.0856518,
7693370592,bench,,42.3529451,-71.0855375,
7693370595,bench,,42.3529938,-71.0855577,
7693370596,bench,,42.3530363,-71.0855796,
7712030805,bench,,42.3538865,-71.0843798,
7712030806,bench,,42.3539442,-71.084236,
7712030807,bench,,42.3539834,-71.0840844,
7713962847,bench,,42.353316,-71.0845027,
7713962848,bench,,42.3532775,-71.0844075,
7713962849,bench,,42.3532467,-71.0842901,
7713962850,bench,,42.3537011,-71.0849448,
7713979096,bench,,42.3528892,-71.0861466,
7713979097,bench,,42.3528509,-71.0861261,
7713979098,bench,,42.3528063,-71.0860981,
7713979099,bench,,42.3528411,-71.086329,
7713979100,bench,,42.3527489,-71.0862676,
7713979101,bench,,42.3528567,-71.0862795,
7713979102,bench,,42.3528084,-71.086252,
7713979103,bench,,42.3528745,-71.0861953,
7713979104,bench,,42.3527635,-71.0862225,
7713979105,bench,,42.3528353,-71.0861724,
7713979106,bench,,42.352791,-71.086149,
7713979110,bench,,42.3529035,-71.0863927,
7713979111,bench,,42.3529313,-71.0862948,
7713979112,bench,,42.3531116,-71.085639,
7713979113,bench,,42.3530804,-71.0857539,
7713979118,bench,,42.3530163,-71.0861166,
7713979119,bench,,42.3530593,-71.0859525,
7713979120,bench,,42.3527964,-71.0862987,
7713979134,bench,,42.3525618,-71.0872907,
7713979135,bench,,42.3525156,-71.0872653,
7713979136,bench,,42.3525444,-71.0871579,
7713979137,bench,,42.3525894,-71.0871814,
7713979139,bench,,42.352458,-71.0871709,
7722540582,bench,,42.3529921,-71.0857617,
7722540583,bench,,42.3529437,-71.0857419,
7722540584,bench,,42.3528948,-71.0857168,
7725585265,bench,,42.354522,-71.1002544,
7725585266,bench,,42.3545296,-71.1002283,
7725585267,bench,,42.3548116,-71.0994618,
7725585268,bench,,42.354821,-71.0994359,
7725585269,bench,,42.3556979,-71.0965303,
7725585270,bench,,42.3557315,-71.0964307,
7725585271,bench,,42.356375,-71.094435,
7725585280,bench,,42.3560464,-71.095416,
7725588130,bench,,42.3556732,-71.0965508,
7725588131,bench,,42.3557253,-71.0963952,
7727514482,bench,,42.3565609,-71.0938912,
7727514483,bench,,42.3565764,-71.0938489,
7727561989,bench,,42.3534631,-71.1041259,
7727561990,bench,,42.353474,-71.1040832,
7727562029,bench,,42.3544452,-71.1008263,
7727562030,bench,,42.3544526,-71.1007839,
7727562040,bench,,42.3549972,-71.0985932,
7727562041,bench,,42.3549851,-71.0986314,
7727562051,bench,,42.3558781,-71.0959319,
7727562052,bench,,42.3558908,-71.095892,
7727562053,bench,,42.3562337,-71.0948758,
7727562054,bench,,42.3562461,-71.0948385,
7727679793,bench,,42.3573253,-71.0915892,
7727679794,bench,,42.3573365,-71.0915518,
7727679795,bench,,42.3574055,-71.091365,
7727679796,bench,,42.3574167,-71.0913288,
7727679805,bench,,42.3582025,-71.0889819,
7727679806,bench,,42.3582179,-71.0889363,
7727679807,bench,,42.3583155,-71.0886332,
7729006579,bench,,42.358766,-71.0872835,
7729022821,bench,,42.3588859,-71.0869453,
7729022822,bench,,42.3588976,-71.0869082,
7729022830,bench,,42.3592428,-71.085877,
7729022831,bench,,42.3592538,-71.0858418,
7729022832,bench,,42.3593123,-71.0856456,
7729022891,bench,,42.3595243,-71.0850165,
7729022927,bench,,42.360241,-71.0828566,
7745572400,bench,,42.3528705,-71.0860626,
7745572401,bench,,42.3529783,-71.0858146,
7745572402,bench,,42.352931,-71.0857958,
7745572403,bench,,42.3528791,-71.0857744,
7745572404,bench,,42.3528247,-71.0863924,
7745572405,bench,,42.3527781,-71.086366,
7745572406,bench,,42.3527274,-71.086335,
7748212836,post_box,,42.3524939,-71.0836869,
7757237571,bench,,42.352757,-71.0865431,
7770229550,loading_dock,,42.3527491,-71.1173433,
7794600762,bbq,,42.3578148,-71.0955545,
7794600763,bbq,,42.3577484,-71.0955116,
7794600764,bbq,,42.3576949,-71.0954767,
7794600765,bbq,,42.3576137,-71.0954365,
7799329361,pub,Bantam Cider Company,42.3778283,-71.0918087,
7799343598,pub,Lamplighter Brewing Company,42.3679737,-71.0979339,
7802019480,bench,,42.3560611,-71.1153235,
7802019482,bench,,42.3557616,-71.1152182,
7802019483,bench,,42.3558262,-71.1152158,
7802026304,bench,,42.3548975,-71.1148598,
7802240627,bench,,42.3538444,-71.1128607,
7802240642,bicycle_parking,,42.3540055,-71.1126631,4
7802240655,recycling,,42.3539497,-71.1125497,
7802240716,recycling,,42.3533527,-71.107524,
7802240724,bench,,42.3552788,-71.0977129,
7802240726,bench,,42.356644,-71.0936466,
7802311713,parking_entrance,,42.3527613,-71.0836165,
7802311720,bench,,42.3526595,-71.0832311,
7802311721,bench,,42.3526615,-71.0832806,
7804005227,drinking_water,,42.358626,-71.0876905,
7804005228,recycling,,42.3585928,-71.0877029,
7804005229,bicycle_parking,,42.3586399,-71.0878662,14
7804005230,bench,,42.3580918,-71.0892858,
7806877684,bicycle_parking,,42.3526367,-71.0871891,4
7841432863,loading_dock,,42.3531536,-71.1077126,
7841432864,loading_dock,,42.3531586,-71.1078284,
7841432865,loading_dock,,42.3531823,-71.1075531,
7841432866,loading_dock,,42.3531623,-71.1079136,
7841432867,loading_dock,,42.3532001,-71.10799,
7841432869,bench,,42.3531601,-71.107936,
7841432870,bench,,42.3531551,-71.1078599,
7841432871,bench,,42.353153,-71.1077992,
7841432876,loading_dock,,42.3531503,-71.1076364,
7841481424,bench,,42.3694753,-71.1212434,
7841481427,bench,,42.3695066,-71.1206457,
7847744331,recycling,,42.3531369,-71.0845394,
7847744337,bench,,42.3539373,-71.0847345,
7848305775,parking_entrance,,42.3528795,-71.0836724,
7855184466,cafe,Clover Food Lab,42.3762106,-71.1164724,
7857641285,food_court,Mather Dining Hall,42.3679673,-71.1156159,
7857981565,drinking_water,,42.3798711,-71.1059092,
7857981569,drinking_water,,42.3706803,-71.0966276,
7859518676,drinking_water,,42.3777482,-71.1009159,
7859518677,drinking_water,,42.3783449,-71.1012088,
7859518678,drinking_water,,42.3780539,-71.1004039,
7879666403,drinking_water,,42.373502,-71.1109246,
7903806141,drinking_water,,42.3630686,-71.108669,
7908278853,pub,The Thirsty Scholar,42.3763245,-71.1042368,
7924592200,fast_food,Dunkin',42.3628339,-71.0839222,
7934762079,drinking_water,,42.3724583,-71.0842732,
7934762080,drinking_water,,42.3733065,-71.0836455,
7934762081,drinking_water,,42.3732951,-71.0827229,
7939984667,drinking_water,,42.373278,-71.1041662,
7939984668,drinking_water,,42.3702682,-71.1050807,
7939984669,drinking_water,,42.3709714,-71.1015137,
7943533804,bicycle_parking,,42.3636692,-71.0834555,6
7943533805,bicycle_parking,,42.3627803,-71.0841019,14
7952930289,drinking_water,,42.3676888,-71.1104192,
7952930290,drinking_water,,42.3695315,-71.1077612,
7952930291,drinking_water,,42.3632794,-71.1129105,
7952930292,drinking_water,,42.3633309,-71.1120995,
7952930293,drinking_water,,42.3637105,-71.1113744,
7955993527,bicycle_parking,,42.3639288,-71.0835122,4
7955993528,waste_basket,,42.3640739,-71.0834072,
7956401652,bicycle_parking,,42.3629469,-71.0838536,18
7956401653,bicycle_parking,,42.3629843,-71.0839349,2
7956401654,bicycle_parking,,42.3629236,-71.0839821,2
7956401655,recycling,,42.3627864,-71.0841303,
7956401656,bicycle_parking,,42.3630402,-71.0838913,2
7956401657,bicycle_parking,,42.3628561,-71.0840311,14
7969361194,waste_basket,,42.3643714,-71.083248,
7969361195,waste_basket,,42.364584,-71.0831222,
7975043846,drinking_water,,42.3673509,-71.0966216,
7975043847,drinking_water,,42.3648602,-71.0986329,
7975043848,drinking_water,,42.3644338,-71.098124,
7975043849,drinking_water,,42.3652414,-71.1062243,
7975046278,drinking_water,,42.3800506,-71.0830928,
7997267439,public_bookcase,,42.3751376,-71.1027056,
8017517433,drinking_water,,42.3683875,-71.1005264,
8043342284,bicycle_parking,,42.3647055,-71.1106054,2
8043351209,bench,,42.3623976,-71.1155537,
8043351210,waste_basket,,42.3624383,-71.1157054,
8043351211,bench,,42.3623902,-71.1155166,
8043351212,drinking_water,,42.3624579,-71.1157471,
8043351213,waste_basket,,42.3623805,-71.1154126,
8043351214,bicycle_parking,,42.3624127,-71.1156217,6
8043351215,waste_basket,,42.362697,-71.1159029,
8043352087,post_box,,42.3646795,-71.1109409,
8045003334,bench,,42.3725626,-71.0840617,
8045003335,bicycle_parking,,42.3732857,-71.0834812,4
8045003336,bench,,42.3732214,-71.0832544,
8045003339,bench,,42.3732801,-71.0833561,
8069501713,drinking_water,,42.3622418,-71.1150892,
8069501714,drinking_water,,42.3676033,-71.1158836,
8069501715,drinking_water,,42.36742,-71.115041,
8218414920,drinking_water,,42.3727997,-71.0895178,
8261036659,library,O'Connell Branch Library,42.3704407,-71.0848233,
8261036660,library,Valente Branch Library,42.3721548,-71.0902467,
8272624010,restaurant,Pita Cambridge,42.3740469,-71.100552,
8288489622,recycling,,42.3658984,-71.1047012,
8288489623,waste_basket,,42.3658791,-71.1046666,
8288489624,post_box,,42.3658028,-71.1045899,
8288489626,waste_basket,,42.3660005,-71.1045064,
8288489627,post_box,,42.3659963,-71.1044976,
8288489628,clock,,42.3659423,-71.1043924,
8288489629,recycling,,42.3658355,-71.1042395,
8288489630,waste_basket,,42.3658306,-71.1042314,
8288489631,bicycle_parking,,42.3657689,-71.104106,
8288489632,waste_basket,,42.3655583,-71.1042767,
8288489633,recycling,,42.3655534,-71.104263,
8288489642,post_box,,42.3653433,-71.1034103,
8288489643,bicycle_rental,Blue Bikes,42.3650492,-71.1029091,
8288489644,waste_basket,,42.3652658,-71.1032843,
8288489645,recycling,,42.3652601,-71.1032749,
8288489646,telephone,,42.3652269,-71.1031723,
8288489652,bicycle_parking,,42.3649284,-71.1027126,
8288489653,waste_basket,,42.3649162,-71.1026714,
8288489654,waste_basket,,42.3647332,-71.1028065,
8288489655,recycling,,42.3647369,-71.1028136,
8288489659,waste_basket,,42.3645441,-71.1020863,
8288489660,recycling,,42.364536,-71.1020759,
8288489681,post_box,,42.3648018,-71.0961013,
8288489727,bicycle_rental,Blue Bikes,42.3712403,-71.0976195,19
8288489729,bicycle_parking,,42.3717139,-71.0982518,6
8288556192,food_sharing,Cambridge Community Fridge and Pantry,42.3741735,-71.1207468,
8288556193,post_box,,42.3679394,-71.1134009,
8288556194,food_sharing,Coast Community Fridge,42.3657627,-71.1110754,
8291758806,drinking_water,,42.3580368,-71.1078181,
8291758807,drinking_water,,42.3565092,-71.1091069,
8291758808,drinking_water,,42.3552718,-71.1116013,
8291758809,drinking_water,,42.3556782,-71.113896,
8298563703,parking_entrance,,42.3624026,-71.1253772,
8331896775,bench,,42.3660494,-71.1150874,
8331896784,bicycle_parking,,42.3657089,-71.1153554,50
8331896788,bicycle_parking,,42.3666302,-71.1134535,22
8331896789,bicycle_parking,,42.3664924,-71.1130576,10
8347216800,bench,,42.3673893,-71.1152347,
8347308900,bicycle_parking,,42.3669418,-71.1149918,
8347308901,bicycle_parking,,42.367155,-71.1153887,
8347308902,waste_basket,,42.3668662,-71.1148287,
8347334955,waste_basket,,42.3666777,-71.1143284,
8347334956,bicycle_parking,,42.3665964,-71.1137571,22
8347350535,parking_entrance,,42.3662739,-71.1141101,
8347377985,bicycle_parking,,42.367227,-71.1136946,10
8347377986,post_box,,42.3665538,-71.1136183,
8347377988,bicycle_parking,,42.3670517,-71.113429,8
8347377989,bench,,42.3664667,-71.1129031,
8347377991,bench,,42.366825,-71.1133351,
8347377992,bench,,42.3668236,-71.1132788,
8347377993,bench,,42.3668182,-71.1132252,
8365762197,bicycle_parking,,42.3671597,-71.113697,10
8365762198,bicycle_parking,,42.366743,-71.114445,
8365785025,bench,,42.3666239,-71.1136863,
8365785026,bench,,42.366793,-71.1120527,
8365785027,bench,,42.3667812,-71.1120243,
8365785028,bench,,42.3666832,-71.1119716,
8365785029,bench,,42.3666583,-71.1119832,
8365785030,bench,,42.3666075,-71.1121479,
8365785031,bench,,42.3666005,-71.1121184,
8365785032,drinking_water,,42.366724,-71.1119749,
8382447960,post_box,,42.3763552,-71.1220453,
8630584510,bench,,42.3737598,-71.1110962,
8630584511,bench,,42.3737368,-71.1111475,
8630621324,bench,,42.3737768,-71.1104946,
8630621325,bench,,42.3736554,-71.1102837,
8630621326,bench,,42.3738696,-71.1108786,
8630621327,bench,,42.3738851,-71.1109048,
8630621328,bench,,42.3738978,-71.1109306,
8630621329,bench,,42.3739122,-71.1109617,
8630621330,bench,,42.3737101,-71.1108552,
8630621331,bench,,42.3736855,-71.1108456,
8630621332,bench,,42.3736615,-71.110839,
8630621333,bench,,42.3736356,-71.1108357,
8630621334,bench,,42.3736132,-71.1108344,
8630621335,bench,,42.373591,-71.1108356,
8630621336,bench,,42.3734689,-71.1109251,
8630621337,bench,,42.3734425,-71.1109344,
8630621338,bench,,42.3733209,-71.1106249,
8630621339,waste_basket,,42.3735739,-71.1108374,
8630621340,waste_basket,,42.3735128,-71.1109056,
8630621341,waste_basket,,42.3737679,-71.1106271,
8635443627,bench,,42.3736436,-71.1102442,
8635443628,bench,,42.3734107,-71.1108659,
8635443629,bench,,42.3733897,-71.1108573,
8635443630,bench,,42.3733729,-71.1108445,
8635443633,bench,,42.3738901,-71.1110743,
8635443634,bench,,42.3738688,-71.1110528,
8635443635,bench,,42.3738479,-71.1110312,
8635443636,bench,,42.3738286,-71.1110101,
8674187527,restaurant,Amelia's Trattoria,42.3650037,-71.09267,
8677869681,bench,,42.3737077,-71.1111864,
8677869682,waste_basket,,42.3737502,-71.111121,
8677869683,bench,,42.3731963,-71.1105103,
8677869684,bench,,42.3731828,-71.1104736,
8677869685,bench,,42.373168,-71.1104363,
8677869686,bench,,42.3730354,-71.1101035,
8677869687,bench,,42.3730192,-71.1100603,
8677869688,bench,,42.3729585,-71.1098544,
8677869689,bench,,42.3729933,-71.1096889,
8677917138,bench,,42.3748444,-71.1109755,
8677917139,bench,,42.374887,-71.1108959,
8677917172,bicycle_parking,,42.3749754,-71.1112268,
8691773723,bench,,42.3765576,-71.1205236,
8691773724,bench,,42.3765473,-71.1205522,
8691773725,bench,,42.3763945,-71.1206871,
8691773726,bench,,42.3763726,-71.1206862,
8691773727,bench,,42.3763494,-71.120688,
8691773728,bench,,42.3761311,-71.1204506,
8691773729,bench,,42.3761249,-71.1204035,
8691773730,bench,,42.3761235,-71.1203555,
8691773731,bench,,42.3762129,-71.1201338,
8691810329,bench,,42.3764935,-71.120796,
8691810330,bench,,42.3765042,-71.121169,
8691810331,bench,,42.3765123,-71.121666,
8691810332,bench,,42.3768241,-71.12063,
8691810333,bench,,42.3768425,-71.1206605,
8691810334,bench,,42.3772593,-71.1203778,
8691810335,bench,,42.3760523,-71.1200223,
8691810336,bench,,42.3760147,-71.1200815,
8691810337,bench,,42.3758868,-71.1199466,
8691810338,bench,,42.3759183,-71.1198893,
8691810339,bench,,42.3757533,-71.1198142,
8691810340,bench,,42.3757877,-71.1197525,
8723322058,bicycle_parking,,42.3610738,-71.112593,6
8723347738,bench,,42.3609118,-71.1124169,
8723347739,bench,,42.3608621,-71.1123247,
8723347740,bench,,42.3609555,-71.1126135,
8723347741,bench,,42.3610432,-71.1128117,
8723347742,bench,,42.3610248,-71.1130871,
8723347743,bench,,42.3610001,-71.1130834,
8723347744,bench,,42.3609956,-71.1131593,
8723697549,parking,,42.3724293,-71.1236975,
8723697551,parking,,42.3726746,-71.121902,
8736486658,waste_basket,,42.3619848,-71.1007458,
8742462431,bench,,42.3754208,-71.1195549,
8742462432,bench,,42.3754023,-71.1195127,
8742462433,bench,,42.3753821,-71.1194698,
8742535226,bicycle_parking,,42.3749296,-71.1188113,
8742535227,bicycle_repair_station,,42.3749405,-71.1187393,
8747592857,bicycle_parking,,42.3726432,-71.1129428,
8747592858,bicycle_rental,Verizon Innovation Hub 10 Ware Street,42.3725029,-71.1130129,18
8749943462,bicycle_parking,,42.3738251,-71.1145792,
8754931136,waste_basket,,42.3733282,-71.118893,
8754931137,bench,,42.3733592,-71.1188875,
8758888195,theatre,Starlight Square,42.3651658,-71.1016389,
8779092920,restaurant,The Dial,42.3636113,-71.0995133,
8783734363,post_box,,42.3795609,-71.1227254,
8783788024,post_box,,42.3685105,-71.1088798,
8805595487,research_insitute,Center of Mathematical Sciences and Applications,42.3776972,-71.1233706,
8805595488,research_insitute,Black Hole Initiative,42.3777267,-71.123398,
8825287582,car_sharing,Zipcar,42.3669192,-71.114906,
8857106417,dentist,Harvard Street Dental,42.3694032,-71.1045254,
9063183000,bench,,42.3641057,-71.0884534,
9063183001,bench,,42.364028,-71.0884888,
9063183002,bench,,42.3640425,-71.0886892,
9063183003,bench,,42.3641161,-71.0887069,
9063183004,bench,,42.3641816,-71.0886315,
9063183005,bench,,42.3641283,-71.08839,
9063183006,bench,,42.3639586,-71.0885362,
9063183007,bench,,42.3640221,-71.0887645,
9063183008,bench,,42.3642357,-71.0886196,
9063183009,bench,,42.3639976,-71.088573,
9067448538,drinking_water,,42.371209,-71.0916088,
9067448539,drinking_water,,42.3709113,-71.0908033,
9067448540,drinking_water,,42.3696159,-71.0914152,
9067448541,drinking_water,,42.3701371,-71.0930374,
9067501164,waste_basket,,42.366197,-71.0950254,
9067509004,waste_basket,,42.3792385,-71.1033316,
9067509005,recycling,,42.3792318,-71.1033276,
9067509006,waste_basket,,42.3790614,-71.103487,
9067509007,recycling,,42.379059,-71.103507,
9067509008,waste_basket,,42.3796981,-71.103672,
9067509009,waste_basket,,42.3795583,-71.1030841,
9067509010,waste_basket,,42.3797815,-71.1030939,
9067509011,waste_basket,,42.3793518,-71.1035644,
9067509012,recycling,,42.3793436,-71.1035456,
9067509013,waste_basket,,42.3791245,-71.1026856,
9067510021,drinking_water,,42.3658511,-71.0940254,
9067510022,drinking_water,,42.3662034,-71.095046,
9067516040,waste_basket,,42.3658586,-71.0940137,
9067519100,waste_basket,,42.3712106,-71.091584,
9067519101,recycling,,42.3712091,-71.0915635,
9067519102,recycling,,42.3701567,-71.0930288,
9067519103,waste_basket,,42.3701255,-71.0930474,
9067519104,waste_basket,,42.3696058,-71.0914136,
9067519105,recycling,,42.3696115,-71.0914336,
9067611074,bench,,42.3791284,-71.1035732,
9067611075,bench,,42.3791494,-71.1035625,
9067611079,bench,,42.3792994,-71.1033833,
9067611080,bench,,42.3793305,-71.103401,
9067611081,bench,,42.3793906,-71.1034262,
9067611082,bench,,42.3792938,-71.1036139,
9067611083,bench,,42.3794308,-71.1035654,
9067611084,bench,,42.3795429,-71.1030919,
9067611085,bench,,42.3797657,-71.1030834,
9067611086,bench,,42.3798894,-71.1032185,
9067611087,bench,,42.3798924,-71.103417,
9072007522,give_box,,42.3551706,-71.1018698,
9082016916,bench,,42.3645507,-71.0867863,
9082048817,bench,,42.3651517,-71.0863191,
9082048818,bench,,42.3656671,-71.0861223,
9082048819,bench,,42.3651422,-71.0863253,
9082048820,waste_basket,,42.3651646,-71.086308,
9082048821,recycling,,42.3651744,-71.0863005,
9082048822,bench,,42.3651299,-71.0863349,
9082048823,bench,,42.3645366,-71.0867984,
9082048824,bench,,42.3656439,-71.0861256,
9089016270,bench,,42.3679629,-71.1189047,
9089043587,bench,,42.3680931,-71.1187429,
9091875819,waste_basket,,42.377071,-71.1050745,
9092223188,recycling,,42.3733993,-71.1041275,
9092224550,waste_basket,,42.3734165,-71.1041307,
9101946697,clinic,Passport Health Cambridge Travel Clinic,42.3722628,-71.0884819,
9124557078,bank,Bank of America,42.3633896,-71.0876898,
9163452260,bicycle_parking,,42.3574345,-71.1012044,
9163452261,bicycle_parking,,42.3569029,-71.1022636,18
9163452262,bicycle_parking,,42.3596716,-71.093251,38
9163452263,bicycle_parking,,42.3598122,-71.0940062,36
9163452264,bicycle_parking,,42.3595407,-71.0936957,40
9163452265,bicycle_parking,,42.359919,-71.093151,34
9163452266,bicycle_parking,,42.3596037,-71.0889906,
9165042542,bicycle_parking,,42.3635114,-71.0865776,16
9165042543,bench,,42.3635761,-71.0867372,
9165042544,bench,,42.3635938,-71.08679,
9165042545,bench,,42.3637246,-71.0870933,
9165042546,bench,,42.3637431,-71.0871338,
9165042547,bicycle_parking,,42.3636578,-71.0869308,18
9177438820,bicycle_parking,,42.3577238,-71.100139,10
9251658988,bicycle_parking,,42.3624426,-71.0850473,12
9253550921,waste_basket,,42.3635648,-71.0867333,
9255213430,pub,Trina's Starlite Lounge,42.3744851,-71.101563,
9264803661,post_box,,42.3742508,-71.1041681,
9264803672,bicycle_parking,,42.3748041,-71.108588,
9264803673,bicycle_parking,,42.3748738,-71.109204,
9264803674,bicycle_parking,,42.3748433,-71.1089513,4
9264803675,bicycle_parking,,42.3748849,-71.1092165,
9264803676,bicycle_parking,,42.3748913,-71.1092701,
9264803685,bench,,42.3744998,-71.1072706,
9264803686,bicycle_parking,,42.3743268,-71.1058867,2
9264803687,bench,,42.3741492,-71.1045577,
9264803688,bicycle_parking,,42.3741027,-71.1041842,2
9264803689,bicycle_parking,,42.3740358,-71.1036826,2
9264803690,bench,,42.3739943,-71.1033326,
9264803691,bench,,42.3739928,-71.1033193,
9264803692,bench,,42.3739906,-71.1032945,
9264803693,bench,,42.3739889,-71.1032796,
9264803694,bicycle_parking,,42.3739463,-71.1029765,2
9264803695,bench,,42.3738732,-71.1024095,
9268146771,bench,,42.3800387,-71.0968708,
9268146773,bicycle_parking,,42.3799521,-71.0966428,
9268146775,recycling,,42.3799139,-71.0966073,
9268146776,waste_basket,,42.3799166,-71.0966093,
9268146778,bench,,42.3798235,-71.0965684,
9268146780,bicycle_parking,,42.3796799,-71.0968093,2
9268146782,bench,,42.379703,-71.0966705,
9268146785,recycling,,42.3797064,-71.096645,
9268146786,waste_basket,,42.3797053,-71.0966497,
9268146811,bicycle_parking,,42.3760396,-71.0964929,
9268146817,post_box,,42.3759383,-71.0974585,
9268153997,bicycle_parking,,42.3736816,-71.0978562,2
9268153999,bench,,42.3736127,-71.0978843,
9268154000,bicycle_parking,,42.3735122,-71.0979822,2
9290820331,bbq,,42.3565008,-71.0959817,
9307450537,fast_food,Dunkin',42.3584562,-71.1263614,
9313162996,bench,,42.3624932,-71.08611,
9313162997,bench,,42.362421,-71.0852022,
9313162998,bench,,42.3624112,-71.0850701,
9313162999,waste_basket,,42.362412,-71.085084,
9313163000,waste_basket,,42.3624565,-71.0856498,
9313163002,bench,,42.3624559,-71.0856332,
9313163003,waste_basket,,42.3624941,-71.0861206,
9332964156,bicycle_parking,,42.3596928,-71.0929406,
9332964161,bicycle_parking,,42.36053,-71.091854,34
9332964162,bicycle_parking,,42.3609586,-71.0907213,24
9332964164,parking_entrance,,42.3611922,-71.085484,
9333051376,bench,,42.362513,-71.0863933,
9333051377,waste_basket,,42.3625124,-71.0863797,
9349890554,restaurant,Isshindo Ramen,42.3526964,-71.1255045,
9349901499,cafe,Brown Sugar Cafe,42.3523015,-71.1216801,
9349903200,restaurant,Thai Dish,42.3526682,-71.1212724,
9349909552,cafe,Starbucks,42.3525926,-71.1237969,
9349914241,clinic,Planned Parenthood,42.3523751,-71.122938,
9349918361,doctors,Alexandra Laser Skincare,42.3527807,-71.1212006,
9368366108,drinking_water,,42.3689744,-71.0855616,
9368366109,drinking_water,,42.3684213,-71.0831573,
9380608836,bicycle_parking,,42.3756527,-71.1168772,
9380608837,bicycle_parking,,42.3756021,-71.1165892,
9380608838,bicycle_parking,,42.3773479,-71.1162418,
9380608839,bicycle_parking,,42.3779287,-71.11619,
9382884818,bench,,42.3622739,-71.0850871,
9444773346,university,Harvard Graduate School of Education,42.3753953,-71.1218908,
9462072432,bench,,42.3540675,-71.1239752,
9462072441,bench,,42.353905,-71.1238566,
9462072493,parking_entrance,,42.3535603,-71.1225723,
9599409010,bicycle_parking,,42.3771308,-71.0940838,
9611968788,restaurant,Pon de Joy,42.3524797,-71.1254726,
9611968789,restaurant,kimchipapi korndogs,42.3524762,-71.1254454,
9611968790,cafe,Kung Fu Tea,42.3524742,-71.1254085,
9611968792,restaurant,Poke Boys,42.352389,-71.1253227,
9611968793,restaurant,,42.3524663,-71.1253086,
9611968794,restaurant,Pho Express,42.3525258,-71.1253046,
9611968795,restaurant,Kantin,42.3525872,-71.1252938,
9611968796,restaurant,,42.3525947,-71.1253689,
9611968798,fast_food,TKK Fried Chicken,42.3525357,-71.1254273,
9625359456,post_box,,42.3525017,-71.1268632,
9625359458,bench,,42.3523999,-71.1258792,
9632090185,shelter,,42.3579976,-71.0939431,
9632096583,bench,,42.3615942,-71.085968,
9632096584,bench,,42.3615867,-71.0858938,
9632096585,bench,,42.3615063,-71.0860087,
9632096586,bench,,42.3612455,-71.0857396,
9632488652,shelter,,42.354956,-71.102526,
9634189808,bbq,,42.3575079,-71.0934468,
9634189809,bbq,,42.3575593,-71.093288,
9663204023,bbq,,42.3541397,-71.1035772,
9687172823,atm,,42.3524715,-71.1255496,
9692752990,drinking_water,,42.3578964,-71.0967068,
9692752991,drinking_water,,42.3586607,-71.0974842,
9692842227,bench,,42.3657771,-71.0944712,
9692842228,bench,,42.3657276,-71.0943531,
9692842229,bench,,42.3656895,-71.0942653,
9692842230,bench,,42.365656,-71.0941866,
9695626385,bench,,42.3661015,-71.0952893,
9695632504,bench,,42.3659781,-71.0949212,
9695632505,bench,,42.3659923,-71.0948786,
9695693694,bench,,42.3660941,-71.0952048,
9695695707,bench,,42.3660989,-71.0952601,
9695712584,bench,,42.3660915,-71.0951745,
9695761160,bench,,42.3659024,-71.0947876,
9695761161,bench,,42.3659135,-71.0947375,
9695766319,bench,,42.3659536,-71.0947629,
9695766320,bench,,42.3659439,-71.0947752,
9695774248,waste_basket,,42.3663397,-71.094853,
9695790925,bench,,42.3662764,-71.0948919,
9695802505,bench,,42.366241,-71.094918,
9696397958,restaurant,Mulan Taiwanese Restaurant,42.3664162,-71.0942767,
9701394228,fast_food,Dunkin',42.3664578,-71.0940874,
9701474721,public_bookcase,,42.3663984,-71.0938687,
9704357629,drinking_water,,42.3577456,-71.1035694,
9704368617,drinking_water,,42.3571731,-71.1063975,
9704368618,waste_basket,,42.3574069,-71.106884,
9704372895,drinking_water,,42.3604437,-71.103527,
9704372896,bench,,42.3604384,-71.1035009,
9709443292,bench,,42.3661128,-71.0944273,
9741839042,cafe,Möge Tee Cambridge,42.3651657,-71.1029784,
9760328154,public_bookcase,,42.365271,-71.0827764,
9768351568,bicycle_parking,,42.3624794,-71.1074724,4
9768351570,bicycle_parking,,42.3602539,-71.1099174,2
9768351571,bicycle_parking,,42.3600563,-71.1101289,2
9768351572,bicycle_parking,,42.3586899,-71.1113306,5
9768351573,bicycle_parking,,42.3586876,-71.1114031,4
9768351574,bicycle_parking,,42.3579128,-71.1123218,2
9768351575,bicycle_parking,,42.3574911,-71.1142511,9
9769535165,waste_basket,,42.3575165,-71.1141856,
9772725747,bench,,42.3565954,-71.1093281,
9772725748,bench,,42.3563122,-71.109617,
9772725749,bench,,42.3564902,-71.1091492,
9772725750,bench,,42.3562125,-71.1094577,
9773277910,waste_basket,,42.3795362,-71.0949771,
9773950919,waste_basket,,42.3540423,-71.1128974,
9783727219,bar,Vera's,42.3797989,-71.095229,
9783744775,bench,,42.3729129,-71.1222224,
9784131528,bench,,42.3794504,-71.0948836,
9784131529,bench,,42.3794588,-71.0949074,
9784131532,nightclub,The Jungle Community Music Club,42.3799443,-71.0946625,
9784131538,recycling,,42.3796628,-71.0949834,
9784131539,waste_basket,,42.3796587,-71.0949839,
9784274029,restaurant,Casa B Tapas,42.3797218,-71.0944662,
9784274030,charging_station,,42.3797168,-71.0947553,
9784274031,pub,The Independent,42.3797497,-71.0948221,
9804105487,post_box,,42.3733987,-71.0978347,
9804139446,post_box,,42.3731676,-71.0960656,
9806690295,fuel,,42.3692002,-71.1104238,
9811254563,restaurant,Machu Chicken,42.3799222,-71.0967078,
9811254564,restaurant,Hen Chicken Rice,42.3798887,-71.0967027,
9811254565,restaurant,Masala Square,42.3798537,-71.0966934,
9811477842,waste_basket,,42.362309,-71.0947089,
9811572606,waste_basket,,42.3527515,-71.0867168,
9834067292,waste_basket,,42.3639578,-71.0876933,
9834067293,recycling,,42.3639773,-71.0876762,
9837419075,restaurant,Kantipur Cafe,42.369953,-71.0960337,
9840111963,bench,,42.3718732,-71.1250855,
9840111964,bench,,42.3716084,-71.1248147,
9840111965,bench,,42.3713555,-71.1246442,
9840111966,bench,,42.3711216,-71.1244745,
9840111969,bench,,42.3698111,-71.1235309,
9840111971,bench,,42.3697299,-71.1233947,
9840111972,bicycle_parking,,42.3694509,-71.123005,
9840111974,bicycle_parking,,42.3705385,-71.1194446,
9840111975,bicycle_parking,,42.37051,-71.1191366,
9840111976,waste_basket,,42.3705368,-71.1192408,
9840111977,bicycle_parking,,42.3710187,-71.1192476,
9849164980,bicycle_parking,,42.3729996,-71.1177426,16
9849164981,bicycle_parking,,42.3728935,-71.118151,16
9849164982,bicycle_parking,,42.3726729,-71.1182371,16
9849164983,bicycle_parking,,42.3722765,-71.1184823,20
9849164984,bicycle_parking,,42.3716056,-71.1196386,20
9849164985,bicycle_parking,,42.3714863,-71.1197046,20
9849164986,bicycle_parking,,42.3713542,-71.1197836,20
9849164987,bicycle_parking,,42.3704335,-71.1207674,
9849164988,bicycle_parking,,42.3704594,-71.1188183,12
9849164989,bicycle_parking,,42.3703617,-71.1184102,12
9849164990,bicycle_parking,,42.3702919,-71.1181229,12
9849164991,bicycle_parking,,42.370223,-71.1165279,
9849164992,bicycle_parking,,42.370397,-71.1164298,
9849164995,bicycle_parking,,42.3712345,-71.1163342,2
9849164996,bicycle_parking,,42.3712949,-71.1165209,2
9849164997,bicycle_parking,,42.3721178,-71.1185846,4
9849164998,bicycle_parking,,42.3713608,-71.1213341,6
9849165004,bicycle_parking,,42.3715917,-71.1216842,22
9849165005,bicycle_parking,,42.3717379,-71.1217949,14
9849165011,bicycle_parking,,42.3713641,-71.1219706,
9849185179,bicycle_parking,,42.3720257,-71.1222381,
9849185180,bicycle_parking,,42.3723801,-71.1223028,4
9849185181,bicycle_parking,,42.3722801,-71.1217173,12
9849185182,bicycle_parking,,42.3725224,-71.1219171,
9849185183,bicycle_parking,,42.3725929,-71.1218584,
9849185184,bicycle_parking,,42.372662,-71.1218001,
9849185185,bicycle_parking,,42.372738,-71.1217414,
9849185186,bicycle_parking,,42.3726392,-71.121466,4
9849185187,bicycle_parking,,42.371007,-71.121695,4
9849230484,bicycle_parking,,42.3734168,-71.1227902,6
9849230485,bicycle_parking,,42.373638,-71.1230177,7
9849230486,bicycle_parking,,42.3737665,-71.1227482,6
9849230487,bicycle_parking,,42.3740519,-71.1222359,4
9849230488,bicycle_parking,,42.3740185,-71.1223114,4
9849230489,bicycle_parking,,42.373994,-71.1223676,4
9849230490,bicycle_parking,,42.3740215,-71.1222132,
9849230491,bicycle_parking,,42.3744406,-71.1217601,2
9849230492,bicycle_parking,,42.3742094,-71.1215814,2
9849230493,bicycle_parking,,42.3744578,-71.1220066,2
9849230494,bicycle_parking,,42.3746157,-71.1219231,4
9853997428,bicycle_parking,,42.3654599,-71.1228324,18
9853997429,bicycle_parking,,42.3656891,-71.1232195,24
9853997430,bicycle_parking,,42.3658395,-71.1228029,30
9853997431,bicycle_repair_station,,42.3663516,-71.1223383,
9853997436,bicycle_parking,,42.3662075,-71.1193461,12
9853997437,bicycle_parking,,42.3660722,-71.1204181,
9853997438,bicycle_parking,,42.3653351,-71.1190091,18
9853997439,bicycle_parking,,42.3651151,-71.1185377,12
9853997440,bicycle_parking,,42.3652389,-71.118485,10
9853997441,bicycle_parking,,42.3674404,-71.1233019,7
9853997442,bicycle_parking,,42.3675537,-71.1235794,6
9853997443,bicycle_parking,,42.3678293,-71.1235272,5
9853997444,bicycle_parking,,42.3676311,-71.1229952,5
9853997445,bicycle_parking,,42.3671842,-71.1206167,5
9853997446,bicycle_parking,,42.3671271,-71.1217272,7
9853997447,bicycle_parking,,42.3671141,-71.1213684,7
9853997448,bicycle_parking,,42.3668432,-71.1220679,12
9853997449,bicycle_parking,,42.3668239,-71.1218305,12
9853997450,bicycle_parking,,42.3667103,-71.1221446,5
9853997451,bicycle_parking,,42.3666834,-71.1217728,5
9853997456,bicycle_parking,,42.3643796,-71.1240512,66
9853997463,bicycle_parking,,42.3676492,-71.1253151,25
9854377281,bicycle_parking,,42.3680687,-71.1267521,18
9854377282,bicycle_parking,,42.3677662,-71.1270505,35
9854377284,bicycle_parking,,42.3695942,-71.1260519,30
9854390620,bicycle_parking,,42.3755513,-71.124531,10
9854390621,bicycle_parking,,42.3772442,-71.1249031,
9854390622,bicycle_parking,,42.3772565,-71.1249377,22
9854390623,bicycle_parking,,42.37699,-71.1250556,8
9854390624,bicycle_parking,,42.3778185,-71.1234599,
9854390626,bicycle_parking,,42.3791177,-71.1240782,2
9854390627,bicycle_parking,,42.3790079,-71.123899,10
9854421958,bicycle_parking,,42.3794801,-71.1164112,22
9856950589,bicycle_parking,,42.3625634,-71.0895994,10
9856950590,bicycle_parking,,42.3627966,-71.0896136,8
9856950591,bicycle_parking,,42.3620886,-71.090203,8
9856950592,bicycle_parking,,42.3617721,-71.0912439,12
9856950593,bicycle_parking,,42.3614822,-71.0912208,
9856950596,bicycle_parking,,42.3622811,-71.0910875,
9856950597,bicycle_parking,,42.3612457,-71.0920978,
9856950598,bicycle_parking,,42.3612924,-71.0919784,
9856950599,bicycle_parking,,42.3606867,-71.0924224,
9856950600,bicycle_parking,,42.3598942,-71.0937878,28
9856950601,bicycle_parking,,42.3597586,-71.0939548,24
9856950602,bicycle_parking,,42.3598252,-71.0947014,12
9856950603,bicycle_parking,,42.3602832,-71.0952398,6
9856950605,bicycle_parking,,42.3628238,-71.093733,2
9856950609,bicycle_parking,,42.3624606,-71.0937782,2
9856950612,bicycle_parking,,42.3622892,-71.0937991,2
9856980227,bicycle_parking,,42.3637147,-71.0914391,
9856980228,bicycle_parking,,42.3638336,-71.0921638,10
9856980229,bicycle_parking,,42.3638108,-71.0918007,27
9856980230,bicycle_parking,,42.3636293,-71.092337,
9856980231,bicycle_parking,,42.362958,-71.0923827,6
9856980232,bicycle_parking,,42.3629651,-71.0925057,4
9856980233,bicycle_parking,,42.3626321,-71.0905683,12
9856980234,bicycle_parking,,42.3625997,-71.0906461,36
9857027817,bicycle_parking,,42.3617823,-71.0941801,6
9857027818,bicycle_parking,,42.3617095,-71.0941871,2
9857027819,bicycle_parking,,42.3616613,-71.0942864,2
9857027823,bicycle_parking,,42.3620526,-71.095149,32
9857027828,bicycle_parking,,42.3648804,-71.0891247,10
9857027829,bicycle_parking,,42.3652446,-71.0891028,24
9857027830,bicycle_parking,,42.3635129,-71.0879739,4
9857027831,bicycle_parking,,42.363488,-71.0879957,2
9857027832,bicycle_parking,,42.3634679,-71.0880158,4
9857027833,bicycle_parking,,42.3631169,-71.0879941,4
9857027834,bicycle_parking,,42.3622604,-71.0848799,4
9857027835,bicycle_parking,,42.362243,-71.0849314,6
9857027836,bicycle_parking,,42.3622095,-71.0846134,8
9857027837,bicycle_parking,,42.3621914,-71.0844235,8
9857027838,bicycle_parking,,42.362295,-71.0845546,6
9862697882,bench,,42.3623769,-71.0863382,
9863094257,drinking_water,,42.3633378,-71.0997391,
9920194528,bicycle_parking,,42.3604182,-71.0955009,2
9920194529,bicycle_parking,,42.360958,-71.0964267,4
9920194530,bicycle_parking,,42.3611598,-71.0967534,10
9920194531,bicycle_parking,,42.3612649,-71.0969285,10
9920194532,bicycle_parking,,42.3619959,-71.098157,4
9920194533,bicycle_parking,,42.3620728,-71.0982878,2
9920194534,bicycle_parking,,42.3621543,-71.0984198,4
9920194535,bicycle_parking,,42.362251,-71.0985888,4
9920194536,bicycle_parking,,42.3624132,-71.098867,4
9920194537,bicycle_parking,,42.3624719,-71.0989618,4
9920194538,bicycle_parking,,42.3634715,-71.1006486,6
9920194539,bicycle_parking,,42.3636131,-71.1009094,4
9920194540,bicycle_parking,,42.3639733,-71.1015215,6
9920194541,bicycle_parking,,42.3643639,-71.1021368,10
9921710229,waste_basket,,42.3619586,-71.1136018,
9925922688,cafe,Dig,42.3631452,-71.0835779,
9929864722,waste_basket,,42.3643727,-71.0886303,
9959979427,restaurant,Alfredos Italian Kitchen - Cambridge,42.3721316,-71.0896537,
9970285789,bicycle_rental,Blue Bikes - Sennott Park,42.3685195,-71.0992147,
9991717086,bicycle_parking,,42.3630588,-71.0901078,12
9991717087,bicycle_parking,,42.3678506,-71.0897982,
9991717088,bicycle_parking,,42.3679236,-71.0897936,
9991717089,bicycle_repair_station,,42.3679321,-71.0897523,
10026802332,bar,Blue Owl,42.3635823,-71.0995809,
10038198707,bicycle_parking,,42.3571513,-71.10821,4
10038198708,bicycle_parking,,42.3573571,-71.1078732,4
10038198709,bicycle_parking,,42.3575294,-71.1077935,2
10038198710,bicycle_parking,,42.3577176,-71.1075793,2
10038198711,bicycle_parking,,42.3588995,-71.106031,
10038198712,bicycle_parking,,42.3593268,-71.105918,2
10038198713,bicycle_parking,,42.3593954,-71.105962,2
10038198714,bicycle_parking,,42.360382,-71.1047161,4
10038198715,bicycle_parking,,42.3644092,-71.1018267,12
10038198716,public_bookcase,Little Free Library,42.3708391,-71.0977307,
10038300317,bicycle_parking,,42.3709999,-71.0973677,2
10038300318,bicycle_parking,,42.3706149,-71.0971523,2
10038300319,bicycle_parking,,42.370461,-71.0964752,6
10038300320,bicycle_parking,,42.3713252,-71.0974403,
10038300321,bicycle_parking,,42.3712883,-71.0976664,4
10038300322,bicycle_parking,,42.3716479,-71.098121,4
10038300323,bicycle_parking,,42.3718044,-71.0986232,2
10038300324,bicycle_parking,,42.3718826,-71.0987088,2
10038300325,bicycle_parking,,42.3727275,-71.0986898,2
10038300326,bicycle_parking,,42.3726537,-71.0985708,2
10038300327,bicycle_parking,,42.3740176,-71.0976115,2
10038300328,bicycle_parking,,42.3755454,-71.0966795,4
10040840826,restaurant,Shy Bird,42.3626938,-71.0839944,
10046395102,restaurant,Souper Roll Up Cafe,42.3719882,-71.0889171,
10053848367,post_box,,42.3578892,-71.1024795,
10053848369,bench,,42.3583638,-71.0991908,
10053848370,bench,,42.3583147,-71.0991366,
10053848371,bench,,42.3582838,-71.0991063,
10053848372,bench,,42.3583433,-71.0988857,
10053848373,bench,,42.3583777,-71.0989121,
10053848378,library,MIT Library Storage Annex,42.3627738,-71.0988449,
10058484417,bar,Wusong Road Tiki Bar,42.3727741,-71.1222731,
10078608631,waste_basket,,42.3658832,-71.0914042,
10104528298,waste_basket,,42.3592549,-71.0935803,
10107335251,waste_basket,,42.3639466,-71.0886593,
10158250803,waste_basket,,42.3621769,-71.0948455,
10179159930,waste_basket,,42.3680695,-71.0976171,
10186455313,parking_entrance,,42.3746249,-71.0940609,
10186455314,parking_entrance,,42.3746188,-71.0941003,
10229220887,bicycle_parking,,42.3788591,-71.0994487,6
10255878078,bicycle_parking,,42.3631434,-71.1150095,16
10266381865,waste_basket,,42.3603858,-71.0922927,
10266449468,waste_basket,,42.3601548,-71.0930117,
10274474418,waste_basket,,42.3623811,-71.0984162,
10552734714,restaurant,Donut Villa Brunch & Bar,42.3658548,-71.1035519,
10582361572,atm,,42.3697001,-71.1118916,
